timestamp,time_elapsed,x,y,z,roll,pitch,yaw,lateral_error_pixels,lateral_error_m,distance_traveled
2.129,1.722,0.008971827253162118,1.3562841472090126,-0.0010071942772961404,-1.1747467306224759e-06,0.0031781665284926846,-1.1669491781950954,-314,-0.2453125,0.044941483667593256
2.165,1.758,0.009337108869023452,1.3554392231022852,-0.0010072472767730656,-9.094995952094405e-07,0.0031785091688747175,-1.158674513118116,-312,-0.24375,0.045861987554068166
2.195,1.7879999999999998,0.009691014910672292,1.3546351471524603,-0.0010072937456057224,-4.7580467763150026e-07,0.0031788266815149695,-1.1547865375121913,-310,-0.2421875,0.046740501992994676
2.229,1.822,0.010083098151711378,1.3537556748931714,-0.0010073131765763153,-1.3043454212508313e-06,0.0031786207274886328,-1.1496396192825953,-309,-0.24140625,0.047703414617671684
2.261,1.854,0.010690920487280209,1.3524139383815021,-0.0010073698834456926,-9.11998954010709e-07,0.0031790142373407087,-1.14063778769319,-306,-0.2390625,0.04917640642293154
2.297,1.8900000000000001,0.011541661901131654,1.350588846550193,-0.0010074291573431947,-5.141385363435487e-07,0.003179431641318373,-1.1276999916026347,-302,-0.2359375,0.05119004023918351
2.332,1.9249999999999998,0.012576167051084228,1.3484499543302502,-0.0010078792886057536,1.8333430404547611e-06,0.003182523170097403,-1.1120437692755116,-296,-0.23125,0.05356597391540644
2.366,1.959,0.01370541397960913,1.3462074013730088,-0.0010089867272775992,8.768905825550027e-06,0.003191581170540643,-1.095472876684089,-290,-0.2265625,0.05607679895742253
2.403,1.996,0.014905527360347122,1.3439204937521665,-0.0010093449738552002,1.07561116860622e-05,0.0031947049578759847,-1.0784208379271158,-285,-0.22265625,0.05865947559085785
2.439,2.032,0.016104577809652874,1.3417246781385606,-0.0010094706015296613,1.1180217622788674e-05,0.003195680276803982,-1.0619027690491354,-279,-0.21796875,0.06116134053304317
2.473,2.066,0.017336993537742082,1.3395590030427351,-0.0010093707744617542,1.0630506415765687e-05,0.0031948510939763925,-1.0454603022897635,-273,-0.21328125,0.06365312646837552
2.5060000000000002,2.099,0.01862491833000872,1.3373806090800868,-0.00100856966253483,6.23827198318323e-06,0.003187906942995175,-1.0288189983802059,-267,-0.20859375,0.06618376878348796
2.54,2.133,0.019891218427106904,1.33531519325623,-0.001009072789230507,9.38810541056716e-06,0.003192325121002362,-1.012900491014433,-261,-0.20390625,0.06860646531036649
2.581,2.174,0.021217100873849364,1.3332288623910338,-0.0010091685311607243,1.0506960958169972e-05,0.0031935201521160637,-0.9966203771830979,-254,-0.1984375,0.07107845656068473
2.617,2.21,0.02261952244430948,1.3310993568742753,-0.0010088969478584814,8.753645145856738e-06,0.0031910220932158126,-0.9798408980638881,-248,-0.19375,0.07362827616355798
2.654,2.247,0.024015290981371472,1.329054243229576,-0.001008547417033795,6.493156987599227e-06,0.0031878271244428357,-0.9635484749630652,-241,-0.18828125,0.07610429305138151
2.689,2.282,0.025445155641285307,1.3270297306875956,-0.001007964225305219,3.7784910232961846e-06,0.0031832189323598194,-0.94723821067759,-234,-0.1828125,0.07858283374669128
2.727,2.32,0.028452638761586605,1.3229881966962722,-0.001007373469974919,1.78628390137622e-07,0.003179347086466477,-0.9140262770060106,-228,-0.178125,0.0836207662271947
2.763,2.356,0.029987115827819082,1.3210300728605302,-0.0010072112459108377,-6.817464308013812e-07,0.003178294126558986,-0.8976386408556667,-221,-0.17265625,0.08610850994850011
2.8,2.393,0.03160398544048495,1.3190360275516637,-0.0010071339756944075,-1.0996771020056923e-06,0.003177791846705178,-0.880731901588637,-214,-0.1671875,0.0886757037546189
2.8369999999999997,2.4299999999999997,0.03320770267407572,1.317124153575001,-0.0010071342995696952,-1.1158687998469173e-06,0.003177792382263806,-0.8643000719044442,-206,-0.1609375,0.09117113379129725
2.872,2.465,0.034844852888986706,1.3152362362697214,-0.001007203972963732,-7.757203701523512e-07,0.0031782421535412027,-0.8478459175717034,-199,-0.15546875,0.09367003206408805
2.908,2.501,0.03656605982874669,1.3133169993981024,-0.0010073493310206565,-4.909066689720408e-08,0.003179182036316822,-0.830869671567789,-191,-0.14921875,0.09624802032993796
2.944,2.537,0.0382694959175996,1.311480186555419,-0.001007567377113154,1.0513019287205044e-06,0.003180592895520211,-0.8143701545747233,-183,-0.14296875,0.09875313029316371
2.979,2.572,0.040004599816485145,1.3096698775250664,-0.0010078698600371333,2.5862742419089173e-06,0.003182550986754653,-0.7978493351992645,-176,-0.1375,0.1012606797593367
3.014,2.6069999999999998,0.04182450553129229,1.307833540490648,-0.0010082852690273536,4.535186545459335e-06,0.0031853060530552956,-0.7808081400859351,-168,-0.13125,0.10384605990832137
3.047,2.64,0.043622291157109576,1.3060796707827609,-0.001008792941477054,7.548003991171956e-06,0.0031898243524391173,-0.7642568453793905,-159,-0.12421875,0.10635765145724795
3.087,2.68,0.045450938128379866,1.3043527335708665,-0.0010092115575271003,9.958128597272112e-06,0.003193515077805981,-0.7482175251317564,-151,-0.11796875,0.10887285758783878
3.123,2.716,0.047368899260003684,1.302597529504601,-0.0010093445232666719,1.0489089256010671e-05,0.0031945665833158516,-0.7327641111639945,-142,-0.1109375,0.11147272608771609
3.157,2.75,0.049252977225263804,1.3009233063531256,-0.0010091694217405252,9.0770417702739e-06,0.0031927937223616976,-0.7184716368246337,-134,-0.1046875,0.11399319686519302
3.193,2.786,0.053137695439425675,1.2976256704199085,-0.0010085840670691557,5.665448009433684e-06,0.0031877505260115165,-0.6908203254365974,-126,-0.0984375,0.11908894133416652
3.228,2.821,0.05507131260588983,1.2960461279340614,-0.0010098184902400421,1.415054007558712e-05,0.0031991363316264065,-0.6785095319707726,-119,-0.09296875,0.12158570520186426
3.261,2.854,0.05704717710444915,1.2944730783444862,-0.0010094204553386214,1.136737758548411e-05,0.0031954399659356405,-0.6668459293238507,-111,-0.08671875,0.1241112794985203
3.298,2.891,0.059102573646889034,1.2928741228552987,-0.0010091553283536475,9.321770430262763e-06,0.003192891777107384,-0.6554138939900852,-104,-0.08125,0.12671537504267316
3.331,2.924,0.061120809459211445,1.291338834380462,-0.0010088072623190766,6.773489438695657e-06,0.0031895609029475433,-0.6452677806118979,-96,-0.075,0.12925119571754495
3.367,2.96,0.06315965348705108,1.2898188219304045,-0.0010083406567403808,3.992930600224824e-06,0.003185549899092486,-0.6356615262081695,-89,-0.06953125,0.13179428887710218
3.404,2.997,0.06528499097058146,1.2882651164222672,-0.0010079762933772607,1.6407397401673942e-06,0.0031831597566947304,-0.6267169221487128,-84,-0.065625,0.13442697955868932
3.439,3.032,0.06736748268669049,1.2867700501557393,-0.001007751344293411,-7.428102104749659e-08,0.0031816680614939956,-0.6185624104560936,-78,-0.0609375,0.13699056979290622
3.473,3.066,0.06946626838860911,1.2852888129677926,-0.001007612215121561,-1.395331411009661e-06,0.0031807293587396003,-0.6105719778123863,-73,-0.05703125,0.13955941486988815
3.509,3.102,0.0716488195121367,1.2837737737996626,-0.0010075427279722035,-2.4727691136373456e-06,0.0031802356520896076,-0.6030847034987217,-67,-0.05234375,0.14221626885303806
3.544,3.137,0.07378348878682925,1.2823146996763495,-0.0010075386409007236,-3.2839603551670147e-06,0.00318016076111635,-0.5961490430056174,-63,-0.04921875,0.14480194288694845
3.583,3.176,0.07593601693761635,1.2808641540993564,-0.0010075898382641384,-3.960743814106887e-06,0.0031804355396969908,-0.5899443182220802,-58,-0.0453125,0.14739760463510926
3.615,3.208,0.07816715113169649,1.2793806965445687,-0.0010076800155885517,-4.950010716960067e-06,0.0031811641308275925,-0.583634275615228,-54,-0.0421875,0.15007689672610092
3.651,3.2439999999999998,0.08034851441395172,1.2779488813877662,-0.0010078341023824523,-5.7458695587699074e-06,0.0031823820774359076,-0.5781412621466939,-50,-0.0390625,0.15268619556150106
3.6870000000000003,3.2800000000000002,0.082542413393832,1.2765256093969621,-0.0010080355205454201,-6.276654877113687e-06,0.003183801539835812,-0.5728871375551191,-46,-0.0359375,0.1553013238363142
3.724,3.317,0.08481612397830145,1.2750670260994525,-0.001008297657818829,-6.7680502405210264e-06,0.003185583471329096,-0.5678669926768716,-42,-0.0328125,0.15800266147861336
3.757,3.35,0.0870353311237467,1.2736581864187613,-0.001008606624740397,-7.204608472745198e-06,0.0031876358026180483,-0.5633809109196314,-39,-0.03046875,0.1606312941270231
3.791,3.384,0.08926552534269545,1.2722553057738482,-0.0010088574329833767,-6.68722182054576e-06,0.0031890149722920815,-0.5592794132938524,-36,-0.028125,0.16326603137352497
3.826,3.419,0.0938194505891621,1.2694281211597187,-0.0010095711085235,-5.2192691724728745e-06,0.0031929303764535602,-0.5512120823193712,-33,-0.02578125,0.16862619154737013
3.863,3.456,0.09607703890765894,1.2680432469793346,-0.001009745546344771,-2.4762629936647856e-06,0.0031938230820166315,-0.5475260804629597,-30,-0.0234375,0.17127469707149273
3.899,3.492,0.09841346006052325,1.2666196205371472,-0.0010097792531051086,-2.8196025800677954e-06,0.00319400410246236,-0.5440267156453105,-27,-0.02109375,0.17401067515079946
3.932,3.525,0.1006902516752275,1.265240954321529,-0.001010149431615908,-3.2918225702365516e-06,0.0031962600229702987,-0.5408900937155056,-25,-0.01953125,0.17667234766838577
3.967,3.56,0.10297183798942648,1.263869427776919,-0.0010106615770137384,-2.8950401585295692e-06,0.0031994431870237807,-0.5380435271721957,-22,-0.0171875,0.17933443729341916
4.014,3.607,0.10532460161487646,1.2624641021819005,-0.0010111056759630269,-2.612912638007431e-06,0.0032022068978982167,-0.5351543261677442,-19,-0.01484375,0.1820749548914751
4.053,3.646,0.1076089906090503,1.2611090731229524,-0.0010117021823186217,-2.3423331091591246e-06,0.0032059320315846766,-0.5327820120678904,-17,-0.01328125,0.18473099269754947
4.095,3.6879999999999997,0.11224190349459909,1.258379287754141,-0.0010112578792818953,-1.1048826248721893e-06,0.0032032628718343765,-0.5286083964152253,-15,-0.01171875,0.19010831839009368
4.13,3.723,0.11451389156816026,1.2570542838352226,-0.0010110089627550951,-2.606238248370171e-06,0.003201656969119059,-0.5266353477348722,-13,-0.01015625,0.19273844484932595
4.169,3.7619999999999996,0.11674904090254395,1.255759234010506,-0.0010113395043616497,-6.152895063413481e-06,0.0032042458269810167,-0.5246551736563753,-11,-0.00859375,0.1953216689192615
4.203,3.7960000000000003,0.1190010554896536,1.2544595526991509,-0.001013148798160196,-5.289500857255604e-06,0.0032149326011673297,-0.5228002230638911,-9,-0.00703125,0.19792181145605448
4.2379999999999995,3.8309999999999995,0.12122849709790598,1.2531787048887209,-0.0010136484224969322,-5.572425174636776e-06,0.0032181705206300614,-0.5211966562914664,-8,-0.00625,0.2004912602747036
4.275,3.8680000000000003,0.12348983989605977,1.2518852945370407,-0.0010122057481643416,-6.925785416390905e-07,0.0032091138555140233,-0.5200080381481981,-6,-0.0046875,0.2030963671033376
4.309,3.902,0.12580946896477563,1.2505593596423679,-0.0010120411890443548,-2.5603548828618244e-06,0.003207992390508007,-0.5186872873279558,-5,-0.00390625,0.20576821709189283
4.346,3.939,0.12806374862619205,1.2492735807850133,-0.001011369753477015,-2.6135402082252877e-06,0.0032038483037684935,-0.5177463150665956,-4,-0.003125,0.20836340572894713
4.381,3.974,0.13031862434634686,1.247990402352635,-0.001010746817450836,-2.9395325983992425e-06,0.003199985244971171,-0.5167622400227556,-3,-0.00234375,0.21095782500937668
4.412,4.005,0.13264464792980543,1.2466698700366075,-0.001010056072976672,-2.823549138294524e-06,0.003195729805624247,-0.5158393505731824,-2,-0.0015625,0.21363255701622863
4.453,4.046,0.13490578015933227,1.2453889873592847,-0.0010094657788206028,-2.637723710561154e-06,0.003192098206576548,-0.5150414502293549,-1,-0.00078125,0.21623128351058515
4.483,4.076,0.13717083503176516,1.244108363327451,-0.0010089505204843863,-2.4200418023322096e-06,0.003188931454203207,-0.5143419243220347,0,0.0,0.21883329647866237
4.518,4.111,0.13950890838647198,1.2427886992258688,-0.001008495403202525,-2.173959276559485e-06,0.0031861372346610605,-0.5137229881455561,1,0.00078125,0.22151808703902176
4.557,4.15,0.14178262812354184,1.2415072027848197,-0.0010081197095285488,-1.8984271152515443e-06,0.0031838345871577213,-0.5132212179736337,2,0.0015625,0.22412807450473157
4.59,4.183,0.14406078552447354,1.240224690834934,-0.0010078003911186163,-1.5471962771350398e-06,0.00318188313184285,-0.5128193914516661,3,0.00234375,0.22674242682318826
4.626,4.219,0.14869920264699463,1.237616775586279,-0.0010074407183564976,-1.8664321852643516e-06,0.0031796497535295787,-0.5123012849762297,3,0.00234375,0.23206371764799538
4.66,4.253,0.15098930893624563,1.236330359981654,-0.001007311006433271,-1.8690597638566392e-06,0.0031788478701271546,-0.5120959899618476,4,0.003125,0.23469039842873174
4.693,4.286,0.15335127646705962,1.2350045078446457,-0.00100722186035955,-1.815167114916882e-06,0.003178300587826445,-0.5117222469894187,5,0.00390625,0.23739904652433758
4.731,4.324,0.155647563602239,1.233716152179295,-0.0010071640097947462,-1.6476834864254138e-06,0.0031779527614860005,-0.5116091837898508,6,0.0046875,0.2400320666396484
4.767,4.36,0.15794718578065553,1.2324260638976499,-0.0010071330965802164,-1.5525351868381267e-06,0.0031777667529261705,-0.5116013298300895,6,0.0046875,0.24266884306890882
4.804,4.397,0.1603195726524976,1.2310950441995283,-0.0010071344840539877,-1.4464670710299154e-06,0.0031777805666647284,-0.5116969777055115,7,0.00546875,0.24538910645808204
4.838,4.431,0.1626244276028208,1.2298017853698602,-0.0010071624186112418,-1.3660940354253609e-06,0.0031779569081341282,-0.5116345864238205,7,0.00546875,0.24803199781841903
4.872,4.465,0.16493267493980315,1.2285066295937181,-0.001007229085501736,-1.246314474311989e-06,0.0031783740969497927,-0.511826781560717,8,0.00625,0.25067877590756066
4.909,4.502,0.1673130579439976,1.2271705392346801,-0.0010073165181424884,-1.1577747547560727e-06,0.0031789178443917595,-0.5118699745428777,8,0.00625,0.25340849396885784
4.946,4.539,0.16962699563705316,1.2258712978363648,-0.0010074113130888115,-1.2822384399234933e-06,0.003179498001825577,-0.5121643892003608,8,0.00625,0.2560622339445223
4.981,4.574,0.17194264073106183,1.2245703053596226,-0.001007566320474957,-1.1861707426000844e-06,0.0031804611492617704,-0.5123113805946703,9,0.00703125,0.258718320092588
5.017,4.61,0.17433099188556073,1.2232279761262892,-0.0010077792190733084,-1.0139190151109562e-06,0.0031817845252670894,-0.5124604726332348,9,0.00703125,0.2614580407002153
5.057,4.65,0.17665326247391924,1.2219216737758958,-0.0010079880020759657,-4.147470192736683e-07,0.003183106665496673,-0.512863413584919,10,0.0078125,0.26412250434534135
5.096,4.689,0.18137297123459709,1.2192633457056794,-0.0010086906243542276,-1.5855106578041264e-07,0.0031874537135343803,-0.5133831616960564,10,0.0078125,0.26953936318091626
5.132,4.725,0.18370271200073232,1.2179493367907925,-0.0010091622586250078,-3.301229242778294e-07,0.003190353675887685,-0.5139012403444287,10,0.0078125,0.27221411764923564
5.164,4.757,0.18603258598081002,1.2166336176889518,-0.0010096693883540203,-2.758070495306056e-07,0.00319348573500077,-0.5142750500763487,10,0.0078125,0.2748898286795959
5.201,4.794,0.18843361022689886,1.215276269498326,-0.0010102211571876504,-5.087539640446285e-07,0.0031968768095731338,-0.5146639074848397,11,0.00859375,0.2776479641985474
5.237,4.83,0.19076323159123726,1.2139579277066346,-0.0010106928520916963,-9.733437756466361e-07,0.003199760656989451,-0.515052562839949,11,0.00859375,0.28032474599408136
5.274,4.867,0.19309236107236522,1.2126382450880462,-0.001011078351743272,-1.184449938278772e-06,0.0032021291765630504,-0.5157025896047858,11,0.00859375,0.283001760441869
5.308,4.901,0.1954867426637949,1.211279131309582,-0.0010114093003212449,-1.8186273879658109e-06,0.0032041351853583223,-0.5162269088123113,11,0.00859375,0.28575498645296726
5.344,4.937,0.19780600359333136,1.209960223943209,-0.001011766949689602,-2.221900071032054e-06,0.0032063161315786476,-0.5167327702623975,11,0.00859375,0.28842303590909574
5.378,4.971,0.20012003775065634,1.2086421848982425,-0.0010120006928837008,-2.8810991474074273e-06,0.0032077211195576786,-0.5172441571694502,11,0.00859375,0.2910861132653366
5.416,5.009,0.20249649094184702,1.2072863181099398,-0.0010118177307728016,-3.814896126485194e-06,0.003206543636983545,-0.5177814762826526,12,0.009375,0.2938221513713473
5.453,5.046,0.20478648839105618,1.2059785917070711,-0.0010109526979957609,-2.98299349369455e-06,0.0032012836770222196,-0.5183593735600793,12,0.009375,0.29645924004299723
5.491,5.084,0.20703354162484566,1.2046995922628914,-0.00101118850086538,-5.494403959763311e-07,0.0032028640118102504,-0.519141363904596,12,0.009375,0.2990447937194263
5.524,5.117,0.20930711242562824,1.2033996762575896,-0.0010132326773213858,-2.397728798097548e-06,0.003215319401271392,-0.519839259618574,12,0.009375,0.3016637449994258
5.563,5.156,0.21383893669173148,1.2008062400747255,-0.0010127148744551173,-2.419813610366571e-06,0.003212163126221609,-0.520985078355128,12,0.009375,0.30688517613607175
5.5969999999999995,5.1899999999999995,0.21617085949049505,1.1994670227198165,-0.00101185538366233,-3.085199144681605e-06,0.003206816726607376,-0.5216005876401261,12,0.009375,0.30957429626412153
5.63,5.223,0.21843100444481348,1.1981664664673026,-0.0010111880804139495,-2.8034398771680385e-06,0.003202716729778486,-0.522203717908822,12,0.009375,0.3121819200445937
5.665,5.258,0.220689761677455,1.196864858264818,-0.0010104569231984863,-2.614366467207228e-06,0.0031982160298933728,-0.522808013612266,12,0.009375,0.314788866179209
5.703,5.296,0.2230170811197695,1.1955218618875052,-0.0010097301770924487,-2.090203809177983e-06,0.003193762408050751,-0.5234359400317671,12,0.009375,0.3174758821925685
5.737,5.33,0.2252768899595276,1.1942159979702718,-0.0010090988417520812,-1.540201688294611e-06,0.003189898587879678,-0.5240513670192849,12,0.009375,0.3200858662083397
5.776,5.369,0.22753829173312676,1.1929074015580001,-0.001008600447150787,-1.485035726827535e-06,0.0031868369383632866,-0.5246733554034051,12,0.009375,0.32269859706930637
5.808,5.401,0.2298700180807804,1.191556236026538,-0.0010082212855696236,-1.727200696264681e-06,0.0031844754615944475,-0.5253161635997514,12,0.009375,0.32539351748626744
5.844,5.437,0.23213472879514463,1.1902421074384713,-0.0010079368894961374,-1.645964105277787e-06,0.0031827251830032675,-0.525944414852934,12,0.009375,0.3280118850245879
5.879,5.4719999999999995,0.23440109329135653,1.1889252320559527,-0.001007699293136488,-1.6119615132432963e-06,0.003181260865126506,-0.5265776034385079,12,0.009375,0.33063306201265513
5.915,5.508,0.23673799749718474,1.1875655116930695,-0.0010075038132668808,-1.5908859327559046e-06,0.0031800555132576068,-0.5272350863491817,12,0.009375,0.3333367559177518
5.951,5.544,0.2390080499201067,1.1862429002480426,-0.0010073567197821306,-1.5819713658250898e-06,0.003179147906932321,-0.5278782356661426,12,0.009375,0.3359640052468658
5.995,5.588,0.2436228087962162,1.1835488412583697,-0.0010071706071796555,-1.5947055132597862e-06,0.0031779974838184533,-0.5291994250336783,12,0.009375,0.34130759539104594
6.026,5.619,0.24589867045964728,1.1822176220069385,-0.0010071280497200644,-1.6155472182630435e-06,0.0031777329444443976,-0.5298538680418472,12,0.009375,0.3439442013544876
6.071,5.664,0.2481764607166872,1.1808835531638733,-0.001007115053632518,-1.6463407369935794e-06,0.0031776501494577523,-0.5305132720841457,12,0.009375,0.34658391121223775
6.108,5.701,0.2505253463161841,1.1795060266586157,-0.0010071321178668283,-1.6864853796013005e-06,0.0031777518396697633,-0.5311973128950037,12,0.009375,0.34930693211414265
6.153,5.7459999999999996,0.25280748636195605,1.1781657836144839,-0.0010071652053940672,-1.7807389983950189e-06,0.0031779495607085883,-0.5318630333246869,12,0.009375,0.3519535175758007
6.181,5.774,0.2550919208233455,1.1768220265807021,-0.0010072006850994596,-1.793928471115464e-06,0.0031781674017584355,-0.5325376568422547,12,0.009375,0.35460386166180563
6.211,5.804,0.2574474278845697,1.1754340502046898,-0.0010072705228712127,-1.8489323319801322e-06,0.0031785942005830323,-0.533240245266275,12,0.009375,0.3573378865219423
6.251,5.844,0.25973528013810215,1.1740836121233056,-0.001007367635938717,-1.8982868252120607e-06,0.003179192442149147,-0.5339273614400686,12,0.009375,0.35999456695918847
6.289,5.882,0.26202508430631116,1.172729776974507,-0.0010075166107326242,-1.8335619720052101e-06,0.00318011253949874,-0.5346178086897755,12,0.009375,0.36265465581839407
6.324,5.917,0.2643866395529404,1.1713311791228966,-0.0010077517349699333,-2.045241602592282e-06,0.0031815496910518395,-0.5353350129852993,12,0.009375,0.3653992904267548
6.355,5.948,0.2689769284431407,1.1686056931746367,-0.0010083650058516323,-2.4919234977170733e-06,0.003185304997684385,-0.5367369149265124,12,0.009375,0.3707377386761738
6.391,5.984,0.2689769284431407,1.1686056931746367,-0.0010083650058516323,-2.4919234977170733e-06,0.003185304997684385,-0.5367369149265124,12,0.009375,0.3707377386761738
6.426,6.019,0.2736432711196421,1.1658254301266844,-0.0010092256339046327,-2.9447282288160835e-06,0.003190585931891746,-0.5381685037912107,12,0.009375,0.376169554307844
6.463,6.056,0.2759430020976883,1.1644515691860156,-0.001009737685217959,-3.1038512246443457e-06,0.0031937347281006385,-0.5388754349885336,12,0.009375,0.37884840787899726
6.5,6.093,0.278312146762898,1.163033727202907,-0.0010102502745467264,-2.8080169598751916e-06,0.00319691357755903,-0.5396007564969466,12,0.009375,0.38160940812053235
6.531,6.124,0.28061008189919323,1.1616561358687356,-0.0010107041586556523,-2.163511403718392e-06,0.003199751207861684,-0.5402995752720448,12,0.009375,0.3842886363255579
6.567,6.16,0.2829049548311277,1.1602778865204553,-0.0010110715673060933,-1.6024988854109143e-06,0.003202046648250165,-0.5409968676213303,12,0.009375,0.38696557731104125
6.601,6.194,0.2852651258928824,1.1588576508504036,-0.0010114687532351216,-1.2810903013272437e-06,0.003204545837044025,-0.5417135547054741,11,0.00859375,0.3897201148038395
6.634,6.227,0.287550368128215,1.157479598699468,-0.0010117975781338343,-8.842909759101386e-07,0.0032066002441906924,-0.5424029438945738,11,0.00859375,0.3923887024087059
6.668,6.261,0.28983060177984765,1.1561018164007342,-0.001012260643025096,-1.763316365155486e-06,0.0032093953570298548,-0.542831029605929,11,0.00859375,0.3950528626082326
6.704,6.297,0.2921548496598917,1.1546994803819115,-0.0010112689766627776,-1.1549345329342533e-07,0.0032034111233496475,-0.5433103033920283,12,0.009375,0.39776739286549195
6.7379999999999995,6.3309999999999995,0.2943853095467486,1.1533520092555352,-0.001011691664765859,-2.8423490718189497e-06,0.003205832251053618,-0.5435837959934865,12,0.009375,0.40037327654349747
6.776,6.369,0.29659834026962517,1.152018030689293,-0.0010128229835220832,-4.650210160981114e-06,0.0032127441399488533,-0.5439064832873602,12,0.009375,0.402957266442005
6.813,6.406,0.2988849246562404,1.1506352138782323,-0.0010122799657178681,-2.5087029448425914e-06,0.00320930647739389,-0.5449081380493381,11,0.00859375,0.40562946600230454
6.8469999999999995,6.4399999999999995,0.3010855371249138,1.1493009317921028,-0.0010129838890256398,-7.436204706968519e-07,0.003213898143757681,-0.5458923285440112,11,0.00859375,0.40820298575599734
6.884,6.477,0.30329959589332484,1.1479549857186768,-0.0010126868601989074,2.2627347644564134e-06,0.0032122539301128092,-0.5465080920338545,11,0.00859375,0.41079405253679413
6.926,6.519,0.30782801328814635,1.145196687429931,-0.0010107955842726495,5.25766976984406e-06,0.0032011569650814797,-0.5478024303778947,11,0.00859375,0.4160963896593929
6.957,6.55,0.30782801328814635,1.145196687429931,-0.0010107955842726495,5.25766976984406e-06,0.0032011569650814797,-0.5478024303778947,11,0.00859375,0.4160963896593929
6.991,6.584,0.3100539721384068,1.1438371679431967,-0.0010103692574006465,5.463916826040558e-06,0.003198618917909907,-0.5484789632930671,11,0.00859375,0.4187046814448079
7.029,6.622,0.31457097502083853,1.1410713582838332,-0.0010093987571816905,4.23767845297543e-06,0.0031921034162188644,-0.54989115091541,11,0.00859375,0.42400119183193463
7.066,6.659,0.3167969393385287,1.1397050483446034,-0.00100885881474563,2.9952135163551466e-06,0.003188693929848854,-0.5505895415340913,11,0.00859375,0.42661303409242207
7.098,6.691,0.3190919303783911,1.1382942669764642,-0.0010084084154157215,1.997037048684346e-06,0.0031858536114042347,-0.5513130409825575,11,0.00859375,0.4293069694928609
7.136,6.729,0.32132128631965123,1.1369217729134158,-0.0010080458098911949,1.1434674217202603e-06,0.003183563999490775,-0.552017227316172,10,0.0078125,0.4319249396733509
7.169,6.762,0.32355270104654593,1.1355459944746331,-0.0010077372054519973,3.187472407221294e-07,0.0031816106722445774,-0.552722314635457,10,0.0078125,0.4345463854568875
7.21,6.803,0.3258529908761524,1.1341264079787479,-0.0010075607304368128,-4.38033982255665e-08,0.0031804994983760443,-0.5531913977182992,10,0.0078125,0.43724945022109324
7.244,6.837,0.3280884163057567,1.1327452349353888,-0.0010073856166664084,-5.552107603161191e-07,0.0031793855322678624,-0.5537996637282205,10,0.0078125,0.43987714233148656
7.2780000000000005,6.871,0.3303257020848226,1.1313612095499423,-0.0010072756786133098,-8.864792217302118e-07,0.003178687495972042,-0.554415855700404,10,0.0078125,0.4425079167278898
7.314,6.907,0.3326327459935978,1.1299322680889587,-0.0010071990904043891,-1.210557188376478e-06,0.0031781956740574153,-0.5550548047042095,10,0.0078125,0.44522164576667295
7.348,6.941,0.33487385045560375,1.1285424815599852,-0.0010071578342756293,-1.5105806856241067e-06,0.0031779231868270166,-0.5556789192272216,10,0.0078125,0.4478587001471777
7.383,6.976,0.33711683353261573,1.1271498579364059,-0.001007147761996046,-1.8054814206929503e-06,0.0031778432832682774,-0.5563069576769099,10,0.0078125,0.45049884666597423
7.421,7.014,0.33943000989004535,1.1257117761983402,-0.0010071501367222568,-1.9805747628416232e-06,0.0031778471111671763,-0.5569610254530863,10,0.0078125,0.45322260582308216
7.457,7.05,0.34167720543059577,1.1243126799933605,-0.0010071833887742125,-2.1116473286780363e-06,0.0031780439218332315,-0.5576028780314288,10,0.0078125,0.4558697472980053
7.491,7.084,0.34392620005498103,1.1229104803744065,-0.001007244294485156,-2.241887797931208e-06,0.0031784106160427272,-0.5582480154870731,9,0.00703125,0.4585200568255715
7.532,7.125,0.3484982771737625,1.1200533398589798,-0.0010074481986967615,-2.8015610365142804e-06,0.0031796310920035333,-0.5595589981239795,9,0.00703125,0.46391145225312275
7.562,7.155,0.3507517450301603,1.1186422754071261,-0.0010076308903294445,-3.0775940086394585e-06,0.0031807416364603245,-0.5599548129991563,9,0.00703125,0.46657025278477293
7.599,7.192,0.35307647209783427,1.1171848825718018,-0.001007847455582113,-3.6924813473654752e-06,0.0031820403201755065,-0.5605240852373196,9,0.00703125,0.46931403663479293
7.632,7.225,0.35533482507437425,1.115767194070271,-0.001008133166467192,-4.129595862185117e-06,0.0031837754809703423,-0.5610816661200092,9,0.00703125,0.47198049474509957
7.673,7.266,0.35759472320465513,1.1143465235581944,-0.001008438916823555,-5.767885703532994e-06,0.003186130902164602,-0.5616428925052737,9,0.00703125,0.4746498475249192
7.707,7.3,0.3599244166358894,1.1128800488091728,-0.001008829257835086,-6.454296128950555e-06,0.0031887689221068065,-0.5622241602475947,9,0.00703125,0.4774026678374449
7.742,7.335,0.362186523055768,1.111454125806598,-0.0010092365207434069,-6.704645790108184e-06,0.003191368751226786,-0.5627830955122454,9,0.00703125,0.4800766876324591
7.782,7.375,0.3644484172627272,1.1100264528311705,-0.0010095837734038458,-5.7344730372330495e-06,0.003193184130353976,-0.5633302059136102,9,0.00703125,0.4827514615534179
7.8149999999999995,7.4079999999999995,0.3667773375384007,1.1085545679931492,-0.001010100660897642,-5.791422807011418e-06,0.003196395084040328,-0.5638741426948821,9,0.00703125,0.4855065141167713
7.853,7.446,0.3690356335904433,1.1071254193493307,-0.0010105679045854972,-5.572048971649826e-06,0.003199208421197395,-0.564383018143491,9,0.00703125,0.4881790348191793
7.888,7.481,0.3712909736938551,1.10569623590037,-0.001011010395631281,-4.803701394433349e-06,0.003201686348135771,-0.5648694705451107,9,0.00703125,0.4908490768249989
7.921,7.514,0.3736103707530158,1.1042247480041028,-0.0010114558990583465,-2.747981434830315e-06,0.003204380718802311,-0.5653374067890233,9,0.00703125,0.49359587120152293
7.959,7.552,0.3780864280686994,1.1013841188638387,-0.0010110628156200542,-8.804681343188935e-07,0.0032020775716851847,-0.5661276891448898,9,0.00703125,0.49889721678702703
7.999,7.592,0.3803483035441271,1.0999463193838326,-0.001011961583082227,-4.669237104866207e-06,0.00320746789505407,-0.5662438891300228,9,0.00703125,0.5015773936489238
8.038,7.631,0.38254276528303827,1.0985497100849275,-0.0010124167098560476,-1.087342087436467e-05,0.0032123234188290288,-0.5664438096415605,9,0.00703125,0.5041785818115397
8.08,7.673,0.38477009995789324,1.0971362298549716,-0.001011855734013349,-7.652781987746006e-06,0.0032078552334475433,-0.5668963488867369,9,0.00703125,0.5068165632584585
8.118,7.711,0.3870545664878018,1.0956860838047529,-0.0010118107619840888,-5.212255332978429e-06,0.003206780609071211,-0.5673277781079938,9,0.00703125,0.5095224292738475
8.159,7.752000000000001,0.39140603882703917,1.0929085985318934,-0.0010110272411202638,3.4591799675111832e-06,0.0032021217359354467,-0.5688547119639387,9,0.00703125,0.5146847680279447
8.187,7.779999999999999,0.39140603882703917,1.0929085985318934,-0.0010110272411202638,3.4591799675111832e-06,0.0032021217359354467,-0.5688547119639387,8,0.00625,0.5146847680279447
8.221,7.814,0.3936331318522496,1.0914830677518395,-0.001010583226278023,4.338909516464646e-06,0.0031993607809820846,-0.5697468564327924,8,0.00625,0.5173290224309517
8.259,7.852,0.3980145200573021,1.0886737922723102,-0.001010019536358927,6.841755841421926e-06,0.003197085451438464,-0.5706650949868158,8,0.00625,0.5225336925764549
8.296,7.888999999999999,0.4002771559467365,1.0872210608669404,-0.0010096257172590266,6.44102005848199e-06,0.003194476103761068,-0.5711939332334728,8,0.00625,0.5252225491558031
8.328,7.920999999999999,0.40247221911501124,1.0858094674721084,-0.0010092944653085426,5.9755321430124125e-06,0.0031922173339803436,-0.571726550940919,8,0.00625,0.527832318920562
8.364,7.957000000000001,0.4046676332500113,1.0843960346792356,-0.0010089941881638621,5.402351267875386e-06,0.0031901008227881943,-0.5722712286963633,8,0.00625,0.5304433791427948
8.401,7.994,0.4069305541974821,1.0829374766994586,-0.0010087460604931257,4.936751399633979e-06,0.0031883557385751922,-0.5728413255216266,8,0.00625,0.5331356277559197
8.433,8.026,0.40912834459091435,1.081519058874546,-0.0010084082367760108,4.173980577449055e-06,0.003185980234836647,-0.5733990499035363,8,0.00625,0.5357513861047534
8.471,8.064,0.41132846219583874,1.080097408051693,-0.0010080353605718788,3.0376789462603786e-06,0.0031836094057792817,-0.5739546158217961,7,0.00546875,0.5383708533287547
8.506,8.099,0.4135977236513771,1.0786294174157236,-0.0010077376865483129,1.7880970911607857e-06,0.0031816973380101427,-0.5745253852290728,7,0.00546875,0.5410735453313487
8.545,8.138,0.41580175432856903,1.0772026653711535,-0.0010075716923967082,1.0530098085229532e-06,0.0031806292242447225,-0.5748268691938287,7,0.00546875,0.5436990686358897
8.583,8.176,0.4180093233932289,1.075772474355624,-0.0010073576988583674,-8.03562637790426e-08,0.003179238888122764,-0.5752743973109772,7,0.00546875,0.5463294312565457
8.618,8.211,0.4202861618767529,1.0742961140122924,-0.001007276343907116,-6.585412120985097e-07,0.003178703250290519,-0.575739863838098,7,0.00546875,0.5490430328012493
8.651,8.244,0.42249807477508244,1.072860599320539,-0.0010072301658298546,-1.1782745368282351e-06,0.003178387702026764,-0.5761940598737101,7,0.00546875,0.5516799364968812
8.686,8.279,0.4247120062536598,1.0714225339348145,-0.0010072174238151127,-1.6701322567735416e-06,0.0031782799426450926,-0.576650555199229,7,0.00546875,0.5543199222251484
8.727,8.32,0.4292134677465038,1.0684942952137904,-0.0010072542995861536,-2.361301833049344e-06,0.003178466069368866,-0.5775899986129601,7,0.00546875,0.5596900003913251
8.759,8.352,0.43143356775003877,1.0670477786590522,-0.001007324737828174,-2.6716913458667184e-06,0.0031788814450362966,-0.5780562393760849,7,0.00546875,0.5623397653184135
8.795,8.388,0.4337228234586195,1.0655546619810234,-0.0010074331841360244,-2.998327886162401e-06,0.003179530062155393,-0.5785389947656754,7,0.00546875,0.5650729116945662
8.834,8.427,0.4359468599052398,1.0641025781422186,-0.0010075553779830895,-3.3843028664374264e-06,0.003180255287064067,-0.5790097581948325,7,0.00546875,0.5677290151546771
8.872,8.465,0.43817298092917883,1.062647440521472,-0.0010077369916310329,-4.022531428731074e-06,0.0031813362452848054,-0.5794815637752497,7,0.00546875,0.570388533966142
8.903,8.496,0.440468120751615,1.0611453410425133,-0.001007959377844675,-5.756643096801214e-06,0.0031831664464851087,-0.5799741555414484,7,0.00546875,0.5731315195018714
8.938,8.531,0.44269741876998653,1.0596847307993005,-0.0010082359854200335,-6.57693247877202e-06,0.003185147543104358,-0.5804552482584665,6,0.0046875,0.5757966934056332
8.975,8.568,0.44492828101894777,1.058221417382368,-0.0010085689223174044,-7.26547944511323e-06,0.0031874335413883273,-0.5809327344266815,6,0.0046875,0.578464657522711
9.009,8.602,0.4472261195344681,1.0567127935963203,-0.0010089684482220175,-7.473383650767497e-06,0.0031899648212538154,-0.5811523496771955,6,0.0046875,0.5812134768276559
9.045,8.638,0.449457529065538,1.0552468587261143,-0.0010093637534662296,-7.96337760356547e-06,0.0031925712614889724,-0.5815011835595917,6,0.0046875,0.583883337037299
9.08,8.673,0.4516883141540831,1.0537803565097403,-0.0010097651422289605,-8.336893567595743e-06,0.003195173401085105,-0.5818357300563208,6,0.0046875,0.5865529869884921
9.112,8.705,0.4539850247064017,1.0522691845713716,-0.0010101846241943047,-8.448752094020794e-06,0.0031978014057844535,-0.5821565540540257,6,0.0046875,0.5893022632547928
9.154,8.747,0.4562116426072035,1.0508028171178432,-0.0010105693357776446,-8.00009821224261e-06,0.0032000295148649376,-0.5824389309670596,6,0.0046875,0.5919683579239557
9.186,8.779,0.45843470160357935,1.0493376236530922,-0.001010807311420208,-6.343953584092717e-06,0.003200948421102004,-0.5826872885903951,6,0.0046875,0.5946308348140933
9.222,8.815,0.4607199744736954,1.0478324581377008,-0.0010108258032657386,-3.6340221436260618e-06,0.003200442817385523,-0.5828920972748296,7,0.00546875,0.5973672549791287
9.258,8.850999999999999,0.46507629609856105,1.0449616084549853,-0.00101169119096119,-9.306904342743671e-06,0.0032074358557559655,-0.5829561057180367,7,0.00546875,0.6025844684963819
9.29,8.883,0.46507629609856105,1.0449616084549853,-0.00101169119096119,-9.306904342743671e-06,0.0032074358557559655,-0.5829561057180367,7,0.00546875,0.6025844684963819
9.329,8.922,0.46950878199637947,1.0420390652979503,-0.0010118244021909417,-7.97770125344184e-06,0.0032078082956159427,-0.5833484641564535,7,0.00546875,0.6078937235984743
9.371,8.964,0.4717004521181884,1.040592271249699,-0.0010118360505460867,-7.068905657815039e-06,0.003207529138095057,-0.583611322439327,7,0.00546875,0.6105198673380448
9.401,8.994,0.47396206033276944,1.039103778924409,-0.0010114807539798217,-6.141845352828247e-06,0.003205040358901848,-0.5838939963322627,7,0.00546875,0.6132273534633477
9.441,9.034,0.4761483774230119,1.0376596911449196,-0.001010796341071582,-1.3589215511139748e-06,0.003200399120228794,-0.5842405851539759,7,0.00546875,0.615847538940362
9.477,9.07,0.47830166380231925,1.0362350158812936,-0.0010101483496333316,1.8150407997206961e-06,0.0031966043123012665,-0.5848894265753196,7,0.00546875,0.6184294649342856
9.514,9.107,0.4804864044257533,1.0347865231419202,-0.0010101051786919682,4.6255768185764896e-06,0.0031966842839433515,-0.5858445349082843,6,0.0046875,0.6210507666734413
9.552,9.145,0.48261645883626225,1.0333715359678384,-0.0010098457956181223,5.290181648438028e-06,0.003195282441106945,-0.5866856351470183,6,0.0046875,0.6236079761866695
9.585,9.178,0.48477413467701574,1.031936267268259,-0.001010164222455718,9.766699709720162e-06,0.0031993326839754323,-0.5870455302979609,6,0.0046875,0.626199416186701
9.62,9.213,0.4870151049961283,1.0304458864438883,-0.0010095858814349913,7.886726161624203e-06,0.003194890595496964,-0.5874524476749843,6,0.0046875,0.6288907324023835
9.659,9.252,0.49136234600054035,1.0275496829877555,-0.0010090085101630182,6.637507261003138e-06,0.0031907537082996812,-0.5883155169221721,6,0.0046875,0.6341143807000433
9.695,9.288,0.4936023768114211,1.0260549975551334,-0.0010087700513043037,5.963651964124847e-06,0.003188973349143757,-0.5887781293709972,6,0.0046875,0.6368073015262444
9.729,9.322,0.49577773761781024,1.0246021470351907,-0.0010085979585597593,5.4917639238413995e-06,0.0031876948353299454,-0.5892345927161071,5,0.00390625,0.639423208495399
9.764,9.357,0.4979546819587298,1.0231465475141996,-0.0010082503002791475,4.209297561937347e-06,0.0031850092179594777,-0.5896945225374907,5,0.00390625,0.6420419594627441
9.798,9.391,0.5001994331425573,1.0216448256988109,-0.001007956973386355,3.2392735189502866e-06,0.0031831375466414838,-0.589906140473569,5,0.00390625,0.6447427142254187
9.836,9.429,0.5023817652848573,1.0201839532236832,-0.0010076714676016951,1.7484814803864198e-06,0.003181286111680241,-0.5902575248368911,5,0.00390625,0.6473688752958601
9.871,9.464,0.50456668649023,1.0187203396637614,-0.0010074837011489687,6.136183742720368e-07,0.003180059493077232,-0.5906098792339518,5,0.00390625,0.6499987128053792
9.903,9.496,0.5068206508521487,1.0172094573590797,-0.001007347889052615,-4.2268836753941693e-07,0.003179158836659129,-0.5909687969525993,5,0.00390625,0.6527122198872568
9.94,9.533,0.5090105979003686,1.0157405327941211,-0.0010073013300528448,-1.0721143019155261e-06,0.003178832760298138,-0.5913173786982749,5,0.00390625,0.6553491892559727
9.985,9.578,0.5112026329402332,1.0142692411657306,-0.0010072881268512433,-1.6922732455495778e-06,0.0031787146161287106,-0.5916673273827695,5,0.00390625,0.6579892113528056
10.027,9.62,0.5156597805352415,1.0112741120848259,-0.001007329865807191,-2.6229109283200274e-06,0.0031789166385040907,-0.5923868399233952,5,0.00390625,0.6633592173271575
10.065,9.658,0.5178581012353602,1.0097950249720404,-0.0010074071049761754,-3.071934219368526e-06,0.003179365794583219,-0.5927430693092294,5,0.00390625,0.6660088045757263
10.107,9.7,0.5201250608973301,1.0082685567362,-0.0010075100563519852,-3.49566794724717e-06,0.0031799694823660533,-0.5931117969045181,5,0.00390625,0.6687417903759142
10.147,9.74,0.5223274654355454,1.0067844143215579,-0.0010076769170283308,-4.126839717225663e-06,0.003180960468141949,-0.5934723785555338,5,0.00390625,0.6713975886470356
10.178,9.771,0.5245316155911259,1.0052978425618284,-0.0010078704257220836,-5.588106670168918e-06,0.003182561467032264,-0.5938371418167269,5,0.00390625,0.674056192322872
10.213,9.806,0.5268044963133,1.0037635777849143,-0.001008095921998891,-6.550214084422296e-06,0.0031842738851498974,-0.5942133106165921,4,0.003125,0.6767984459914645
10.251,9.844,0.529011870669367,1.0022720951591724,-0.0010083600805069343,-7.4899464874776764e-06,0.003186218488058835,-0.5945773132585052,4,0.003125,0.6794624696345113
10.287,9.88,0.5312190502923386,1.000779826882164,-0.0010087476889794889,-8.435574440539352e-06,0.003188922843157209,-0.5946781021817195,4,0.003125,0.682126771888128
10.323,9.916,0.5334945637033179,0.9992407716399228,-0.001009117468218218,-9.034598009600633e-06,0.003191405323715459,-0.5949219209591876,4,0.003125,0.6848738889810486
10.358,9.951,0.5379102597171763,0.9962522326456804,-0.0010098593573562888,-1.0143432891399712e-05,0.003196358233406326,-0.5953408646445053,4,0.003125,0.6902058433134128
10.396,9.989,0.5401823262970786,0.9947130783802552,-0.0010101924806897103,-9.888784006429931e-06,0.0031983305528140524,-0.5955121139201522,5,0.00390625,0.6929501615158605
10.433,10.026,0.542385225474825,0.9932198641959352,-0.0010104343888030984,-8.714610203527469e-06,0.0031994359002397253,-0.5956461406921676,5,0.00390625,0.6956114494348145
10.467,10.06,0.5445846463873573,0.9917299222328303,-0.0010100435747608556,-3.3094381992392883e-06,0.0031956316912689683,-0.5959693109857015,4,0.003125,0.698268022302986
10.503,10.096,0.546850313833036,0.990194619384116,-0.0010103158916794398,-4.1691924112538985e-06,0.003197272523851045,-0.5961664048024091,5,0.00390625,0.7010048825134605
10.537,10.13,0.5490197931250153,0.9887234532370321,-0.0010109114948493696,-7.8945665964813e-06,0.0032021353616574822,-0.5958714171400987,5,0.00390625,0.7036261360743837
10.575,10.168,0.5511526629893824,0.9872769427502273,-0.0010115719686258698,-1.074918608588123e-05,0.0032070527316468526,-0.5956937911179887,5,0.00390625,0.7062032519908225
10.611,10.204,0.5533979185710803,0.985755285632589,-0.0010119266254886954,-1.2240234669365914e-05,0.0032098465688147294,-0.5957749871288126,5,0.00390625,0.7089155596818496
10.646,10.239,0.5555771098211705,0.9842783983359064,-0.0010118256056300644,-8.466306931970616e-06,0.003207924489183891,-0.5958764037475248,5,0.00390625,0.7115480624057935
10.681000000000001,10.274000000000001,0.5577534941725997,0.9828033993617018,-0.0010118156498837745,-7.0046337376703e-06,0.0032073938777969053,-0.5959954812224034,5,0.00390625,0.7141771821860717
10.715,10.308,0.559991934352222,0.9812863863179143,-0.0010114105311095564,-5.249663297067266e-06,0.003204302146617414,-0.5961312783256822,5,0.00390625,0.7168812426537331
10.754,10.347,0.5621632185792567,0.97981439796628,-0.001010697315212375,-9.341672558033467e-07,0.0031998087822876727,-0.5963037514109739,5,0.00390625,0.7195044515478008
10.791,10.384,0.5643153795174191,0.9783544094454709,-0.0010096284401084933,6.032433314694033e-07,0.0031933271185144354,-0.5966783573077474,5,0.00390625,0.7221050982336554
10.827,10.42,0.568581917773311,0.975451621123132,-0.0010093407336999663,3.9523531486383405e-06,0.003191657424306874,-0.5983428447258535,5,0.00390625,0.7272654794431117
10.867,10.46,0.5706965342007512,0.9740088028043051,-0.0010095080074846129,6.609383963156343e-06,0.003193740012728004,-0.599050774693028,4,0.003125,0.7298254261879371
10.9,10.493,0.5729192621262166,0.9724914673175887,-0.001009398219256965,7.785349575873827e-06,0.003193689540936862,-0.5994300639409046,4,0.003125,0.7325166761595846
10.936,10.529,0.5750746583628874,0.9710195215405045,-0.0010092397733362582,7.795506919926644e-06,0.0031927065940666756,-0.599572415795654,4,0.003125,0.7351267254517879
10.972,10.565,0.5772318304714983,0.9695453346531903,-0.0010090669777450857,7.633997578561903e-06,0.003191573275627132,-0.5998733271859297,4,0.003125,0.7377395052903695
11.01,10.603,0.5794550436033178,0.968024974429732,-0.0010088376217562353,6.858797131982826e-06,0.003189799539525278,-0.6001998700700458,4,0.003125,0.7404328622734982
11.042,10.635,0.5816140981619085,0.9665475382494201,-0.0010086655355508838,6.247536473146688e-06,0.0031884574181426924,-0.6005245610836951,4,0.003125,0.7430490301300904
11.078,10.671,0.5837745761630251,0.9650679657585067,-0.0010084068597281774,4.9745152389009915e-06,0.0031862781205645985,-0.6008546033958685,4,0.003125,0.7456675793370323
11.113,10.706,0.5860032312309791,0.9635404076900684,-0.0010080152349624463,3.645082146561679e-06,0.0031835212672359763,-0.6011925757402209,4,0.003125,0.7483694929300934
11.15,10.743,0.5881691027745531,0.962054962728612,-0.001007752519719577,2.165392760861043e-06,0.0031818114511993497,-0.6015168137481277,4,0.003125,0.7509958109376431
11.186,10.779,0.5903376209335743,0.9605667824332443,-0.001007555549810097,8.839859291285236e-07,0.0031805192926249357,-0.6018370376440128,3,0.00234375,0.7536258587694373
11.221,10.814,0.5925746735971406,0.9590306414847537,-0.001007399497085084,-3.532797861283156e-07,0.0031794791438396904,-0.6021623940490647,3,0.00234375,0.7563395524944546
11.256,10.849,0.5947475525969406,0.9575381101394702,-0.001007368584213495,-9.098926809889549e-07,0.0031792591272477256,-0.60222532227576,4,0.003125,0.7589756581380936
11.291,10.884,0.5969233801757491,0.9560431969440727,-0.0010073497152896238,-1.6607701892786542e-06,0.0031790959311752075,-0.6024384149956242,3,0.00234375,0.7616155428163471
11.327,10.92,0.6013489933750892,0.9529983230712042,-0.0010073756788866045,-2.7090709902397934e-06,0.0031791938415973208,-0.6034141868960369,3,0.00234375,0.7669874429543254
11.365,10.958,0.6035305766542334,0.9514956867136781,-0.0010075147670198757,-3.517141184251098e-06,0.0031800029904453194,-0.6034824749679784,3,0.00234375,0.769636446847641
11.397,10.99,0.6057807094327221,0.9499453252239448,-0.0010076162963108017,-4.007586671996938e-06,0.003180599671229156,-0.6037060353124327,3,0.00234375,0.7723689764942647
11.432,11.025,0.6079666577962803,0.9484383583891646,-0.0010077609395410109,-5.195788680739713e-06,0.0031817563658990866,-0.6039281618360348,3,0.00234375,0.7750240319153945
11.466,11.059,0.6101547111967675,0.9469292703791741,-0.0010079684870888082,-6.145168661338895e-06,0.0031833526173120946,-0.6041548956734546,3,0.00234375,0.7776820244483562
11.503,11.096,0.6124108347514783,0.9453724233324156,-0.0010082049150425682,-6.866175264123176e-06,0.003185052093828522,-0.6043871202539318,3,0.00234375,0.7804231676808637
11.537,11.13,0.6146018090903503,0.9438595353581003,-0.0010085343565985304,-8.204302376982172e-06,0.0031875273338080115,-0.6046047771363872,3,0.00234375,0.7830857225772787
11.572,11.165,0.6167934766394024,0.9423454051879347,-0.001008862587040478,-9.258816164364801e-06,0.003189906846466641,-0.6048123348054795,3,0.00234375,0.7857495538064998
11.605,11.198,0.6190518257135563,0.9407846342129167,-0.0010092270092312665,-1.0122569024227941e-05,0.0031924457582968337,-0.605007594195208,3,0.00234375,0.7884947580934684
11.637,11.23,0.6212431660793801,0.939269729858925,-0.0010095802694704038,-1.0862936177443938e-05,0.0031948746771511796,-0.6051738754151261,3,0.00234375,0.7911587603083008
11.677,11.27,0.6234329089670259,0.9377550085023564,-0.0010098925904065102,-1.1012689393081118e-05,0.0031968533260709935,-0.6053121726589837,3,0.00234375,0.7938213445233144
11.711,11.304,0.6256871736605355,0.9361948013917037,-0.0010101565313105527,-1.0395223980085883e-05,0.003198279089503909,-0.6054228279955605,3,0.00234375,0.7965628688322592
11.745,11.338,0.6278726156389305,0.9346822782579799,-0.001010296377688718,-8.890383308173148e-06,0.0031986502741620086,-0.6054907605338452,3,0.00234375,0.799220665451826
11.78,11.373,0.630050596988081,0.9331768287289548,-0.0010100388952144629,-6.2278373627366e-06,0.0031961940970304465,-0.6054879259719672,3,0.00234375,0.8018683023305707
11.818999999999999,11.411999999999999,0.6322658262706955,0.9316455418514914,-0.001010153739010075,-7.842911430610026e-06,0.003197464079671237,-0.6052523228233616,4,0.003125,0.8045612710039207
11.852,11.445,0.6343813086742286,0.9301818214195826,-0.001011261939317689,-1.2066997802345112e-05,0.003205570486206664,-0.6047455207831902,4,0.003125,0.8071337684873879
11.887,11.48,0.6365074437076907,0.9287131257330598,-0.0010114001468662925,-1.0673513764869943e-05,0.0032058978122756457,-0.6045725834802621,4,0.003125,0.8097178577273574
11.922,11.515,0.6387456342470754,0.9271682121243826,-0.0010115065539923612,-9.349810805139095e-06,0.003206293219752405,-0.6046392965383087,4,0.003125,0.8124374633879021
11.961,11.554,0.6430720257571415,0.9241796707277224,-0.001011627221078313,-6.704111933667595e-06,0.0032061279547201125,-0.6047221704833987,4,0.003125,0.8176956991362615
12.005,11.598,0.6452969991520741,0.922642839279348,-0.001011360187111933,-3.114879720668396e-06,0.0032037369875268598,-0.6047907733785126,4,0.003125,0.820399836246112
12.044,11.637,0.6474544122083454,0.9211529675740209,-0.001010586659614926,-1.6355234854157132e-07,0.0031991541710026964,-0.604921011925218,4,0.003125,0.8230216960428411
12.084,11.677,0.6495994252258703,0.919671376865543,-0.0010094482942437782,8.139430363733413e-08,0.003192160846511058,-0.6051908775444477,4,0.003125,0.8256286467276066
12.122,11.715,0.651769440026739,0.9181702076160848,-0.0010095810480914152,4.490483952735062e-06,0.0031933048340950336,-0.605839569291653,4,0.003125,0.828267296638358
12.162,11.755,0.6559348297071327,0.9152792114967945,-0.001009100272795653,4.677693224601e-06,0.0031903085372312215,-0.6075042876679703,3,0.00234375,0.833337635157361
12.192,11.785,0.6559348297071327,0.9152792114967945,-0.001009100272795653,4.677693224601e-06,0.0031903085372312215,-0.6075042876679703,3,0.00234375,0.833337635157361
12.234,11.827,0.6602753437272257,0.9122608747385423,-0.0010092778636639037,8.563801646440331e-06,0.0031932964079004846,-0.6080287167250382,3,0.00234375,0.8386244508207736
12.266,11.859,0.6624209557890014,0.9107683232178763,-0.0010091110779980768,8.323419221588531e-06,0.003192161699859845,-0.6082756727160373,3,0.00234375,0.8412381380938574
12.304,11.897,0.6646319252941018,0.9092290772063008,-0.001008895331041839,7.523160444227681e-06,0.003190459432100265,-0.6085483134388924,3,0.00234375,0.8439321433716241
12.338,11.931,0.6667790612049503,0.9077335024112704,-0.0010087251256368258,6.826481128055546e-06,0.003189089916009949,-0.6088211586467464,3,0.00234375,0.8465488085369034
12.375,11.968,0.6689275914679773,0.9062359917644711,-0.001008488724449471,5.601923658495433e-06,0.0031870707443281965,-0.6090998259378217,3,0.00234375,0.8491677244249036
12.408,12.001,0.6711436077284492,0.9046902114139982,-0.0010080951295014969,4.005729125591166e-06,0.003184036034781811,-0.6093866933293228,3,0.00234375,0.851869606168908
12.444,12.037,0.6732974329649687,0.9031870841611334,-0.00100782237074791,2.4956412255941676e-06,0.0031822623979926583,-0.6096610970316313,3,0.00234375,0.854496078077719
12.477,12.07,0.6754538817407854,0.9016813382071469,-0.0010076202914986176,1.1206122391469445e-06,0.0031809330781020525,-0.6099313974084944,2,0.0015625,0.857126200166267
12.513,12.106,0.6776784833077261,0.9001272244852663,-0.0010074691447128047,-1.380034856979105e-07,0.0031799258749936146,-0.6102053061227346,2,0.0015625,0.8598398916727158
12.55,12.143,0.6798393026696676,0.8986173288703022,-0.0010074328423115807,-7.888943642059441e-07,0.003179662208239409,-0.6102179684996782,2,0.0015625,0.8624759730605013
12.585,12.178,0.6820032929818536,0.8971050075767348,-0.0010073997890184608,-1.7007202085992355e-06,0.003179402278859893,-0.6103785726596332,3,0.00234375,0.865116043091052
12.626,12.219,0.686404457571307,0.8940270926754545,-0.0010074306964673978,-2.8795794490352965e-06,0.0031795229075840554,-0.6109728581235561,2,0.0015625,0.8704866865283604
12.659,12.252,0.688575685228654,0.8925065913549068,-0.0010075233196792897,-3.57348380226071e-06,0.0031800492639684802,-0.6114047290060641,2,0.0015625,0.8731373758360341
12.693,12.286,0.6908133811680993,0.8909386358622458,-0.0010077051070469453,-4.938490976839215e-06,0.0031813196635129583,-0.611422157202321,2,0.0015625,0.8758697315128039
12.728,12.321,0.6929877439166692,0.8894148493765817,-0.0010078438404159812,-5.745403409239996e-06,0.0031824488367277258,-0.6115895899635543,2,0.0015625,0.878524873432977
12.765,12.358,0.6951640599196035,0.8878891216969679,-0.0010080556298398963,-6.654681750315669e-06,0.003184061667667913,-0.611759952151315,2,0.0015625,0.8811827290153907
12.801,12.394,0.6974080204851412,0.8863153300771126,-0.0010083231811159922,-7.580604360138651e-06,0.0031860143449928997,-0.6119325660866948,2,0.0015625,0.8839235644869969
12.838,12.431,0.6995868784875491,0.8847865511242037,-0.0010086601698670629,-8.971490681865578e-06,0.0031885607409985147,-0.6120903426832326,2,0.0015625,0.8865852532895271
12.871,12.464,0.7017661946245919,0.8832569150585083,-0.001008966683272012,-1.0137319456788232e-05,0.003190841755844046,-0.6122349871710933,2,0.0015625,0.8892478094520617
12.906,12.499,0.7040114653984062,0.8816806827546119,-0.001009316989634853,-1.101041629061136e-05,0.0031932980486753127,-0.6123632079168031,2,0.0015625,0.8919911193367798
12.941,12.534,0.706189748995508,0.8801510174417816,-0.0010096290550728783,-1.1544728575595339e-05,0.0031954029634654107,-0.6124615929377998,2,0.0015625,0.8946528472339697
12.975999999999999,12.568999999999999,0.7083666890600109,0.878621490622347,-0.0010099055103667265,-1.1455612039140695e-05,0.0031970815292269006,-0.6125314163573136,2,0.0015625,0.8973133961126425
13.013,12.606,0.710607651509571,0.8770464208635614,-0.0010101024704300826,-1.0482695377056225e-05,0.003197976227694462,-0.6125675667553906,2,0.0015625,0.9000525122922484
13.048,12.641,0.7127795395320292,0.8755220040758482,-0.001010069626002419,-8.808396122922608e-06,0.003197229043894426,-0.6125535831506319,2,0.0015625,0.9027059900337716
13.086,12.679,0.7149373981931124,0.8740079302208568,-0.0010097109792490191,-6.02956120303013e-06,0.003194125917363323,-0.6124221071402902,3,0.00234375,0.9053420426962919
13.121,12.714,0.7171210229144064,0.8724752653825409,-0.0010106138809143177,-1.1201269183127614e-05,0.0032013758393679382,-0.61195710048708,3,0.00234375,0.908009865484645
13.155,12.748,0.7192174551843755,0.8710039886972059,-0.0010109569494939248,-1.0837624365879678e-05,0.003203272585056623,-0.6115596738071559,4,0.003125,0.9105710533628333
13.191,12.784,0.7213547795606474,0.8695051489467204,-0.0010118085598098334,-1.4683603790285746e-05,0.0032098684612802985,-0.6113582735635776,4,0.003125,0.9131815468194505
13.227,12.82,0.7257394081964123,0.8664336609445191,-0.0010115753980622297,-8.502782186452972e-06,0.0032064106312112936,-0.6118379302012296,5,0.00390625,0.9185349577663002
13.264,12.857,0.7278912773206181,0.8649235166427486,-0.0010114685236414095,-6.013198486003285e-06,0.0032049089250506904,-0.6119201504672366,6,0.0046875,0.9211638504114801
13.301,12.894,0.7301075131413366,0.863367328322693,-0.0010110416044847338,-1.3012547514434427e-06,0.0032018800212079927,-0.6122869720485848,6,0.0046875,0.9238718798242659
13.335,12.928,0.7322569116818467,0.8618581623802108,-0.00101041420062074,1.3933247878934706e-06,0.003198184042788148,-0.6127948730081829,6,0.0046875,0.9264981882463472
13.373,12.966,0.7343914698119134,0.860358032153927,-0.0010089731553428252,-1.6330057770551977e-06,0.0031891193506490257,-0.613296239957691,8,0.00625,0.9291071591366494
13.406,12.999,0.7365667896134181,0.8588268658966954,-0.0010089680135180155,1.928786182756966e-06,0.003189329294979262,-0.6140436596127423,8,0.00625,0.9317673257378426
13.443,13.036,0.7386564072731538,0.8573506480788247,-0.0010096644699311118,8.1187305860078e-06,0.0031954722349879726,-0.6154685612093194,7,0.00546875,0.9343257864097464
13.48,13.073,0.740735456013512,0.8558786896336035,-0.001009131161174355,5.784392492477804e-06,0.003191071805235041,-0.6166907687513128,9,0.00703125,0.9368731586497699
13.517,13.11,0.7428964977471668,0.8543450785076413,-0.0010094993552562208,9.689755788756334e-06,0.0031950817942290963,-0.6175076686231316,9,0.00703125,0.9395230764711887
13.554,13.147,0.7450332706220224,0.8528264868311884,-0.0010092185536012127,9.143309323055433e-06,0.00319317922353393,-0.6186535703701955,9,0.00703125,0.9421445110018437
13.587,13.18,0.7471661512434987,0.8513075457401669,-0.0010090052951767237,8.326161395825662e-06,0.0031914969776797152,-0.6195452636914679,9,0.00703125,0.9447629765417092
13.624,13.217,0.7493618903402807,0.8497400509907534,-0.0010088806734057133,7.946172110952467e-06,0.0031905622275390185,-0.6204751141604107,10,0.0078125,0.9474608108528882
13.661,13.254,0.7536248279260036,0.8466884511162305,-0.0010084952162707737,5.762694751640124e-06,0.0031871832148437206,-0.6223115035248581,10,0.0078125,0.9527034156058596
13.701,13.294,0.7558249619226024,0.8451080169278674,-0.001007960605362436,3.192948144762923e-06,0.0031831578868688876,-0.6235259411958753,10,0.0078125,0.9554123566954251
13.73,13.323,0.757961434171899,0.8435698116245296,-0.001007705205151633,1.4857706110192495e-06,0.00318147684509666,-0.6245524696504792,12,0.009375,0.9580449579237221
13.77,13.363,0.7600987960310464,0.8420275859298829,-0.0010075633539168814,4.6247790394212125e-07,0.003180542550807662,-0.6255782060551195,12,0.009375,0.9606806316156207
13.805,13.398,0.7623043176508962,0.8404317127302116,-0.001007458972136277,-7.943880445281602e-07,0.0031798245423176746,-0.6271799999071981,12,0.009375,0.9634029719479551
13.84,13.433,0.7644445915749762,0.8388782585784332,-0.0010074578134037018,-1.807198996615793e-06,0.003179758029184183,-0.6284362362192266,13,0.01015625,0.9660475876613952
13.874,13.467,0.766585573216321,0.8373202255160956,-0.0010074879675307583,-2.904855867851746e-06,0.0031798788083556954,-0.6296923705442353,12,0.009375,0.9686954678346493
13.913,13.506,0.7687946775405479,0.8357085052831261,-0.001007656862844774,-3.474515186981404e-06,0.003180887293700204,-0.6312555626955585,11,0.00859375,0.971430021550465
13.949,13.542,0.7709373175506197,0.8341403624909134,-0.001007709914572233,-5.4092603780045775e-06,0.003181507388538377,-0.6323758266528818,11,0.00859375,0.9740852010226532
13.993,13.586,0.7752894649691109,0.8309449290009369,-0.0010081283255049221,-8.051042673932372e-06,0.003184970729903994,-0.6346092146638633,10,0.0078125,0.9794844592630167
14.031,13.624,0.7774346750575951,0.8293644145750239,-0.001008358323630023,-9.569998855608122e-06,0.0031868977900239184,-0.6357880042839624,10,0.0078125,0.9821490328075551
14.067,13.66,0.7795783961233097,0.827781401260365,-0.0010086036518794188,-1.1142081419191756e-05,0.003188937719283816,-0.6367081685756217,9,0.00703125,0.9848138913707767
14.101,13.694,0.781786796436618,0.8261471572226966,-0.0010088214800584965,-1.2422545216880926e-05,0.0031907114828413755,-0.6378037949659022,9,0.00703125,0.9875612147078586
14.145,13.738,0.7839275478810385,0.8245597578171306,-0.0010088952051213428,-1.1941708922040086e-05,0.003191008261640211,-0.6385999642780648,9,0.00703125,0.9902262951230768
14.179,13.772,0.7860669048538531,0.822970564310155,-0.0010090747797763394,-1.1605555029179407e-05,0.003191998857937287,-0.6395247813649176,8,0.00625,0.9928913250027862
14.223,13.816,0.7882680009600953,0.8213318925330712,-0.0010093881638256613,-1.2534098557545904e-05,0.0031942475282233976,-0.6404496802672032,8,0.00625,0.9956354221697841
14.252,13.845,0.7904004892610805,0.8197414255824294,-0.0010097049125188905,-1.3444239785119835e-05,0.0031965041638462467,-0.6410620554371765,8,0.00625,0.9982957025074407
14.291,13.884,0.7925289890407614,0.8181533580182845,-0.0010095801055068666,-1.164617901543294e-05,0.003195154303726403,-0.6417711459079852,7,0.00546875,1.000951351185333
14.331,13.924,0.796813635046971,0.814952738600119,-0.0010097553653416642,-1.2634304587687152e-05,0.0031966116530823515,-0.6426602028995857,7,0.00546875,1.006299449877272
14.361,13.954,0.7988793639488708,0.8134067604249589,-0.0010107080270726973,-1.7268207948305312e-05,0.003203940428620234,-0.6425963426940754,8,0.00625,1.008879621269683
14.396,13.989,0.8010265410982409,0.8117998328708191,-0.0010110952906344749,-1.9368762480106917e-05,0.0032069801953381076,-0.6428371816628268,8,0.00625,1.0115615209462239
14.432,14.025,0.8031454736573611,0.8102139706717711,-0.0010108313873028255,-1.4494264969550613e-05,0.003203833298849208,-0.6435817678176872,7,0.00546875,1.014208185659494
14.471,14.064,0.8052551596392918,0.8086310236519356,-0.0010109049453681622,-1.38894634894849e-05,0.0032040825780963707,-0.6441278400066381,7,0.00546875,1.0168457027134599
14.503,14.096,0.8074271704334521,0.8069993616915253,-0.0010107088564659632,-9.400864534519589e-06,0.003201353501898144,-0.6444220960108155,8,0.00625,1.0195623093546575
14.541,14.134,0.8095348913177763,0.8054146294465087,-0.001010503930931335,-4.873698342649211e-06,0.003198581158291392,-0.6448556198221785,7,0.00546875,1.0221993272944168
14.575,14.168,0.811644084860755,0.8038267058493266,-0.0010101407791600625,2.003759950211572e-07,0.003196437903853929,-0.6455687534344763,7,0.00546875,1.024839440692025
