timestamp,time_elapsed,x,y,z,roll,pitch,yaw,lateral_error_pixels,lateral_error_m,distance_traveled
2.082,1.718,0.00902913506390059,1.3559008765077074,-0.0010071930699884907,-1.1842266712877779e-06,0.0031781585284709184,-1.1655142098959934,-313,-0.24453125,0.045323920969461924
2.111,1.7470000000000003,0.009406830985742097,1.3550309667011657,-0.0010072474837563572,-9.119103422967215e-07,0.003178510310686797,-1.1569888603067768,-310,-0.2421875,0.04627228655345001
2.148,1.7840000000000003,0.009753882505180077,1.3542458468085334,-0.0010072987129110117,-4.436870886788401e-07,0.0031788595170327088,-1.1531435993222163,-309,-0.24140625,0.04713069088880205
2.182,1.818,0.010151570520505106,1.353357834505213,-0.0010073140002939823,-1.3108659879490852e-06,0.0031786253339842582,-1.1479218199734718,-307,-0.23984375,0.048103687090429524
2.215,1.851,0.010787983289290698,1.3519601087126645,-0.0010073724367529666,-9.054375950226674e-07,0.0031790309764394478,-1.1385124173778474,-303,-0.23671875,0.049639479590550865
2.251,1.887,0.01162459244873631,1.3501746660595209,-0.0010074299324699734,-5.180296968496438e-07,0.003179436034483718,-1.1258266559624714,-298,-0.2328125,0.05161120988481852
2.286,1.9220000000000002,0.012667053671277139,1.3480297657665457,-0.0010080076404352135,2.5155008322492487e-06,0.00318339708840254,-1.1101071769516224,-293,-0.22890625,0.053996020709036335
2.323,1.959,0.013835401717147998,1.3457221098239933,-0.0010089987066979438,8.830890300152076e-06,0.003191684007947061,-1.0930355579317363,-286,-0.2234375,0.05658258466639122
2.358,1.9940000000000002,0.015005040952902948,1.3435050720476491,-0.001009344855609249,1.0750632442745698e-05,0.0031947017268859467,-1.0764851293153141,-281,-0.21953125,0.05908923830093162
2.393,2.029,0.01620833809136633,1.341311590485482,-0.0010094717192035418,1.1182783039252394e-05,0.003195688321006154,-1.0599667644421393,-275,-0.21484375,0.06159109468509946
2.429,2.065,0.017482870906034394,1.3390833264752626,-0.0010093286086570973,1.0387892862085997e-05,0.0031944877171817985,-1.0430280199259523,-269,-0.21015625,0.06415811521382621
2.466,2.1020000000000003,0.0200068032474036,1.3349104058961385,-0.00100899591135261,9.001890923775894e-06,0.0031915295702603084,-1.0109725551797493,-263,-0.20546875,0.06903510096738262
2.502,2.138,0.021376246430771885,1.3327657274591143,-0.0010091809963223945,1.0592480469258963e-05,0.003193636859902793,-0.9942154083774589,-257,-0.20078125,0.07157970707260022
2.5380000000000003,2.1740000000000004,0.022741919237374602,1.3307017375698817,-0.001008898393918354,8.762577167417363e-06,0.003191035465677569,-0.9779287966974943,-250,-0.1953125,0.0740546043386596
2.574,2.21,0.024141592478714984,1.3286593218871217,-0.0010085487546634547,6.501065931255069e-06,0.003187839167160829,-0.9616362395506157,-244,-0.190625,0.07653059848318189
2.609,2.245,0.025618576927651925,1.3265766393615928,-0.0010079760905472024,3.6799277725194388e-06,0.003183278179273489,-0.9448279543121076,-237,-0.18515625,0.07908384143373419
2.641,2.277,0.027086715863893898,1.3245789900133444,-0.0010076420728484282,1.6041446249820222e-06,0.0031810902995839554,-0.9284790235546232,-231,-0.18046875,0.08156296120790134
2.68,2.3160000000000003,0.028590241899496886,1.3226021669359282,-0.0010073740800591695,1.8111273718419424e-07,0.0031793510046716532,-0.9121119835165217,-224,-0.175,0.08404659161904171
2.715,2.351,0.03017559454376611,1.320588109556892,-0.0010072080084481475,-6.988980096161953e-07,0.0031782731134428325,-0.8952273222170315,-218,-0.1703125,0.08660974790236534
2.75,2.386,0.03174910861823555,1.318656089393062,-0.0010071340106736458,-1.0989342995220994e-06,0.0031777921124665873,-0.8788174151114447,-211,-0.16484375,0.08910146386852198
2.782,2.418,0.0333564632256735,1.3167473133043728,-0.0010071341413370495,-1.1158004584947767e-06,0.0031777914158298637,-0.8623854890132405,-204,-0.159375,0.09159686263240789
2.819,2.455,0.03504744046001199,1.3148058270398348,-0.0010072068135509628,-7.605519606262275e-07,0.0031782605799690598,-0.8454322738226666,-196,-0.153125,0.09417150298058093
2.8529999999999998,2.489,0.03672206242601424,1.3129466439747284,-0.0010073487826181872,-5.055612977084907e-08,0.00317917857104201,-0.8289548923317981,-189,-0.14765625,0.09667368610709183
2.8890000000000002,2.5250000000000004,0.038428991805969315,1.3111131194825154,-0.001007566604770617,1.0488048099877876e-06,0.0031805879864900675,-0.8124552789040488,-181,-0.14140625,0.0991787649425177
2.922,2.5580000000000003,0.04022070619951572,1.3092518282867875,-0.0010078793892252594,2.6361798124473514e-06,0.003182612776214925,-0.7954334159402414,-174,-0.1359375,0.10176229844981646
2.955,2.591,0.04199093508367095,1.3074733340606954,-0.0010082838364283767,4.529566351790513e-06,0.003185294479932972,-0.778893064452514,-166,-0.1296875,0.10427163143181396
2.991,2.6270000000000002,0.04379205566298919,1.305722931003735,-0.0010087913306044034,7.5402834251481435e-06,0.003189810853465947,-0.7623416551030666,-157,-0.12265625,0.10678319393413398
3.026,2.662,0.04568098350310004,1.3039464517014134,-0.0010092187337682364,1.0002786005845632e-05,0.0031935815093033374,-0.7460130204278043,-149,-0.11640625,0.10937624755809221
3.061,2.697,0.04754706332734426,1.3022451997348583,-0.0010093224350359378,1.0356563489577314e-05,0.003194363244529442,-0.7312102548189425,-142,-0.1109375,0.11190142322805242
3.095,2.7310000000000003,0.04943506605499837,1.3005723913607283,-0.0010091455447944382,8.920009744412555e-06,0.0031925862079705447,-0.7171138829206152,-134,-0.1046875,0.11442389070181472
3.13,2.766,0.05141094990832075,1.2988763531377208,-0.0010088534368140958,7.405554139068241e-06,0.003190200381955036,-0.7031449881707613,-126,-0.0984375,0.11702786125766261
3.166,2.802,0.05528939594277871,1.29566940846734,-0.0010097547769818936,1.3560657191395564e-05,0.0031984470331806627,-0.6790745786003282,-119,-0.09296875,0.12206052465719468
3.203,2.839,0.05732473702117905,1.2940477674019624,-0.0010093650017987364,1.0712572442609548e-05,0.003194801264745705,-0.6670895978043817,-112,-0.0875,0.12466289531687072
3.235,2.871,0.059318354769772694,1.2924951037257852,-0.001009242855998977,9.741592679298956e-06,0.003193625285636922,-0.6559996299754585,-104,-0.08125,0.1271898057266058
3.27,2.906,0.06133405989613085,1.290960036011516,-0.0010088373556119828,6.8421974553273775e-06,0.0031897840810981327,-0.6456012912962816,-97,-0.07578125,0.12972347895806602
3.304,2.94,0.06343566888964117,1.2893924174895126,-0.0010083481255603495,3.903052987217171e-06,0.0031855910893518573,-0.6358574652856943,-90,-0.0703125,0.13234534626823483
3.339,2.975,0.06549676021230477,1.2878849941335646,-0.00100799632293554,1.5999890530864024e-06,0.003183281095364856,-0.626928529841567,-84,-0.065625,0.13489885808814417
3.375,3.011,0.06757828216240155,1.2863900896867373,-0.001007767061048992,-1.3890097792904803e-07,0.003181761717256261,-0.6186703238533939,-78,-0.0609375,0.13746156621313202
3.411,3.047,0.06974177514715768,1.2848630080156072,-0.0010076248805687311,-1.5102158058679617e-06,0.003180801205102095,-0.6105990916072914,-73,-0.05703125,0.14010971279619547
3.445,3.081,0.07186015751754718,1.2833920762570814,-0.0010075583553813688,-2.560580019402122e-06,0.0031803271097596594,-0.6033385909006751,-68,-0.053125,0.14268870176581452
3.482,3.1180000000000003,0.07399450468672648,1.2819324026289873,-0.0010075539167614216,-3.388854167195718e-06,0.0031802490329819917,-0.5964048214414449,-63,-0.04921875,0.14527444826134284
3.5140000000000002,3.1500000000000004,0.07621046767357502,1.2804389317600635,-0.0010076060774387406,-4.084447998743524e-06,0.003180528328981735,-0.5897526132492141,-59,-0.04609375,0.1479467033381285
3.55,3.186,0.0783769625493599,1.2789985376987516,-0.0010076953516099003,-5.252010643896311e-06,0.0031813616075632473,-0.5837810377041588,-54,-0.0421875,0.15054832496677953
3.583,3.2190000000000003,0.08055662604052746,1.2775677402663816,-0.0010078476926418667,-5.9025451000791505e-06,0.0031825175210472415,-0.5780433102280423,-51,-0.03984375,0.15315564432336115
3.617,3.253,0.0828181916902751,1.2761009139125674,-0.0010080590241390124,-6.490727141905194e-06,0.003184018324825012,-0.5727860596644924,-47,-0.03671875,0.15585124420842614
3.652,3.2880000000000003,0.0850236141218402,1.274686547516171,-0.0010083097935820705,-6.957094661902719e-06,0.0031857209490913614,-0.5676672943916172,-43,-0.03359375,0.15847122901847863
3.6870000000000003,3.3230000000000004,0.08724222062617974,1.2732788235242571,-0.0010086194445721314,-7.421533924550129e-06,0.0031877878254565908,-0.5630787730086155,-40,-0.03125,0.1610987566888387
3.723,3.359,0.08953986629805703,1.2718348497861767,-0.0010088849848144885,-6.967656119020347e-06,0.00318927828198303,-0.5587535746963285,-37,-0.02890625,0.16381246923621037
3.759,3.395,0.09177903803725915,1.270440370121043,-0.0010092050610494875,-6.380858417784154e-06,0.003191058568059235,-0.5546851701044225,-33,-0.02578125,0.16645035922901008
3.794,3.43,0.09402812552008552,1.2690512231276623,-0.0010095011851938979,-4.920784730063308e-06,0.0031924024548112286,-0.5509023604795438,-31,-0.02421875,0.16909386521058545
3.825,3.4610000000000003,0.09635820488582013,1.26762162811577,-0.0010095167318776473,-2.412767276109096e-06,0.0031924138001396193,-0.5475777128816135,-28,-0.021875,0.17182754619940796
3.859,3.495,0.09862734036153416,1.2662379456343043,-0.0010097446596628139,-3.0811738282801385e-06,0.0031937741849092606,-0.5442384014317447,-26,-0.0203125,0.17448528076415648
3.902,3.5380000000000003,0.10325417625069114,1.263444935072348,-0.001010658775043402,-3.0306959207014196e-06,0.003199418968041689,-0.5382975580943362,-23,-0.01796875,0.17988977714011536
3.9379999999999997,3.574,0.10553714542860537,1.2620803788373023,-0.001011077928297681,-2.6464879454000615e-06,0.0032020461106226274,-0.5353910607148912,-21,-0.01640625,0.182549469224908
3.975,3.611,0.1078210412156028,1.2607249929912518,-0.0010116947518336236,-2.6746425984890996e-06,0.00320586765827925,-0.5329145107004338,-19,-0.01484375,0.1852052649168878
4.007,3.643,0.1101738640908358,1.2593350806919876,-0.0010117546896532513,-2.6193897460767197e-06,0.0032062369159352893,-0.5304177239334786,-17,-0.01328125,0.18793796169513918
4.043,3.6790000000000003,0.11245384421814486,1.257995803738536,-0.0010112798368735847,-1.5181848770009131e-06,0.0032033789345936496,-0.528189165258281,-14,-0.0109375,0.19058219544784924
4.08,3.716,0.114726205979607,1.256673654433619,-0.0010111362904622716,-1.0829257618437867e-06,0.003202536896266756,-0.5261037271756512,-13,-0.01015625,0.19321120795437097
4.115,3.7510000000000003,0.11702819301139587,1.2553431659206706,-0.0010115028673707664,-6.826323065790224e-06,0.0032054722791704576,-0.5239821637559575,-11,-0.00859375,0.19587003175026488
4.148,3.784,0.11922097513553906,1.2540788127826015,-0.0010133509574908085,-5.708310649963756e-06,0.0032163767294685025,-0.5221683755968864,-9,-0.00703125,0.1984012137472195
4.186,3.822,0.12145635005384278,1.2527954287757908,-0.0010136671172244517,-4.8160202328029235e-06,0.0032180501304003087,-0.5206292532082866,-7,-0.00546875,0.20097880478039737
4.221,3.857,0.12378568392326632,1.2514650093096602,-0.0010125400768943651,-1.8823238066619248e-06,0.0032111103004218516,-0.5193800701589794,-6,-0.0046875,0.20366130589523454
4.256,3.8920000000000003,0.12603979495381723,1.250177865731479,-0.0010120089349043467,-3.0827213734002943e-06,0.0032077640769799004,-0.5183365730335876,-5,-0.00390625,0.20625702451035913
4.293,3.9290000000000003,0.12829367298317687,1.2488935802310652,-0.0010114329536088547,-2.7454449313164045e-06,0.003204231736765773,-0.5172556769628093,-4,-0.003125,0.2088511246275102
4.329,3.965,0.1306173159985961,1.2475728454931945,-0.0010107288072523611,-3.019631181817851e-06,0.0031998698638488936,-0.5162282128742748,-2,-0.0015625,0.2115238867027659
4.367,4.003,0.13513893811601996,1.2450114652106092,-0.001009461485589381,-2.59512554983961e-06,0.0031920745682497004,-0.51477902616193,-1,-0.00078125,0.21672059144809988
4.401,4.037,0.13747431107628552,1.243691666489412,-0.001008937303606905,-2.330472776317889e-06,0.0031888555810204063,-0.5142315757677399,-1,-0.00078125,0.2194030969053196
4.434,4.07,0.1397439016926599,1.2424109383914579,-0.0010085020158688007,-2.1578178314094637e-06,0.0031861796824553036,-0.5136374676217452,0,0.0,0.2220091103409764
4.473,4.109,0.14201599627610662,1.2411309430986104,-0.0010081408364960992,-2.0557409034569665e-06,0.0031839568700191144,-0.512882652909184,2,0.0015625,0.2246169450262737
4.508,4.144,0.1443627669094636,1.2398110410822272,-0.0010078080154913363,-1.6969154492141922e-06,0.003181923302467769,-0.5123600274710006,2,0.0015625,0.22730942970374898
4.542,4.178,0.1466466013170968,1.2385277061752311,-0.0010076030311617183,-1.7404810302055424e-06,0.003180660035681856,-0.5122112704705762,3,0.00234375,0.22992913352002364
4.578,4.214,0.1489320032702944,1.2372443516159792,-0.0010074077317058401,-1.5982947018906149e-06,0.003179462470735707,-0.5117580902936884,4,0.003125,0.2325502136432614
4.616,4.252,0.15129186430232855,1.2359204097935412,-0.0010073053818073462,-1.8324498805628959e-06,0.0031788154081753084,-0.5115399439154298,5,0.00390625,0.23525608984880253
4.6530000000000005,4.289000000000001,0.1535859691671354,1.234633859569581,-0.0010072229890859818,-1.6823342182163398e-06,0.0031783152033223712,-0.5114327123226314,5,0.00390625,0.23788632341438234
4.689,4.325,0.1558831329697904,1.2333456855692244,-0.0010071604670643317,-1.6028146639152679e-06,0.0031779333258218226,-0.5114258074403356,6,0.0046875,0.24052001925700026
4.728,4.364,0.15825234508020083,1.232017364209549,-0.0010071335195835224,-1.532452379499106e-06,0.0031777705417923643,-0.5112585990276511,6,0.0046875,0.2432361937099184
4.761,4.397,0.16055532774783163,1.2307263168659976,-0.001007132794148758,-1.4439432691289595e-06,0.0031777702148382977,-0.5113501057983734,7,0.00546875,0.24587637029694795
4.796,4.432,0.16286062863335418,1.2294338599918075,-0.0010071609319346093,-1.376889496805772e-06,0.0031779470320573953,-0.5112906535780761,7,0.00546875,0.2485192582901161
4.8309999999999995,4.467,0.16755017229386412,1.226804204227438,-0.0010073146131236443,-1.201440125959773e-06,0.0031789034890691765,-0.5115367862195963,8,0.00625,0.25389577289983956
4.866,4.502,0.16986351759502993,1.2255065782365901,-0.0010074303837859372,-1.1476987656109785e-06,0.0031796198678237723,-0.5115787604306483,8,0.00625,0.2565482056877816
4.9,4.5360000000000005,0.17225100079161315,1.2241669474887735,-0.0010075841406814445,-1.1734553653541426e-06,0.003180570483012551,-0.5118836383675551,9,0.00703125,0.2592858482054349
4.937,4.573,0.17456991502164354,1.2228649186354537,-0.0010077811088175584,-1.0595344474813539e-06,0.0031817930827832026,-0.5120330990862048,9,0.00703125,0.26194529219640644
4.973,4.609,0.17689276005692578,1.221559607824895,-0.001007987770122936,-4.995331113017928e-07,0.0031831006448165594,-0.5124355456391804,9,0.00703125,0.2646097706388219
5.011,4.647,0.17928724382617717,1.220212778919218,-0.0010082968594683842,-2.3644195858586289e-07,0.0031850186058767238,-0.5126988771947475,10,0.0078125,0.26735704212565664
5.046,4.682,0.1816136261370051,1.2189032897819687,-0.001008684476194132,-2.494852945627696e-07,0.003187409841881138,-0.5129563068321509,10,0.0078125,0.2700266519204969
5.081,4.7170000000000005,0.18394396826672713,1.217590251764461,-0.0010091564522862785,-4.573535602375847e-07,0.0031903098102204056,-0.5134760272858596,10,0.0078125,0.2727014534602336
5.115,4.751,0.1863450764381449,1.216235632586618,-0.0010096800370083224,-4.1393815983596864e-07,0.003193542689778346,-0.5138622772562947,11,0.00859375,0.27545832008156834
5.152,4.788,0.18867613827773316,1.2149191132605883,-0.0010102257715625014,-6.084485542771588e-07,0.0031968987012868976,-0.5142400140073632,11,0.00859375,0.2781354589341111
5.185,4.821,0.1910082919890511,1.2136003411514418,-0.001010720290909567,-1.066303864166899e-06,0.0031999244387621753,-0.5148828338625,11,0.00859375,0.2808146567261893
5.221,4.857,0.19340711936863328,1.2122418487731041,-0.001011060921886537,-1.4964059766900532e-06,0.0032019992665233647,-0.5153978229292672,11,0.00859375,0.2835714436855017
5.258,4.894,0.19573147528426288,1.2109234067492545,-0.0010114038574583067,-1.6031546912201333e-06,0.0032041100905943545,-0.5158969462254017,11,0.00859375,0.28624369363503394
5.292,4.928,0.19805123743964828,1.2096052333787204,-0.0010117764193699197,-2.020691304472317e-06,0.003206384698482242,-0.5164013548577214,11,0.00859375,0.28891181610080335
5.329,4.965,0.20043582924837988,1.2082480261512076,-0.0010120184036864974,-2.675646214384404e-06,0.003207840956278265,-0.5169259320214229,12,0.009375,0.2916555889690785
5.362,4.998,0.20274294617601607,1.206932720047612,-0.0010118474761113515,-3.4042354038874976e-06,0.003206749795574834,-0.5174437637851274,12,0.009375,0.29431130331063354
5.397,5.033,0.20503654522822318,1.205622640829457,-0.0010107244703772035,-1.1943190883751377e-06,0.0031999878103044473,-0.5181098465029476,11,0.00859375,0.2969526863139345
5.431,5.067,0.20956445600895496,1.2030421331396381,-0.001012424722252818,-2.4599706037158707e-06,0.0032103737452544305,-0.5197935495276934,11,0.00859375,0.30216430864130495
5.464,5.1000000000000005,0.2118008471494422,1.2017602315045248,-0.0010139059406593827,-3.242809714491717e-06,0.003219432115448412,-0.5201569438228556,12,0.009375,0.30474204352591894
5.5,5.136,0.21414566736793442,1.2004203573743248,-0.0010123161696526002,-1.0613917160578718e-06,0.003209774285936259,-0.5206752949341622,12,0.009375,0.3074426813287035
5.536,5.172,0.2164093655327238,1.1991209323239833,-0.0010116860345811551,-1.3755142778867275e-06,0.0032058679252427165,-0.521421156655108,12,0.009375,0.31005282209937585
5.572,5.208,0.2186695718307246,1.1978207740170124,-0.0010111877921852828,-1.407329583038413e-06,0.0032027962354631164,-0.5220412606294887,12,0.009375,0.3126603006002859
5.609,5.245,0.22099695952231113,1.1964800702408054,-0.0010104205325266527,-1.1805685485358729e-06,0.0031980742952877456,-0.5226725149786925,12,0.009375,0.31534623062217476
5.644,5.28,0.2232560024033936,1.1951768832754874,-0.001009707593956806,-6.929159202836839e-07,0.0031937030474578415,-0.5232908266182307,12,0.009375,0.3179542127933454
5.68,5.316,0.22551601665504675,1.193871300715708,-0.0010091299180561807,-5.6913840161558e-07,0.0031901587940558578,-0.5239157006004312,12,0.009375,0.3205642339116652
5.714,5.3500000000000005,0.22784596575173513,1.1925234051896758,-0.0010086442866419493,-1.0037633705630793e-06,0.003187134474374863,-0.5245625055496451,12,0.009375,0.3232559777966321
5.75,5.386,0.23010898651498202,1.1912123835974013,-0.0010082292321956336,-1.4047040764710293e-06,0.003184549860372369,-0.525191513297442,12,0.009375,0.32587132492278886
5.793,5.429,0.2323738484770948,1.1898985257616133,-0.0010079398384681207,-1.4522759683728517e-06,0.0031827543370488895,-0.5258227231330275,12,0.009375,0.3284896874110794
5.838,5.474,0.23697740373821133,1.1872224813702605,-0.001007506733144651,-1.4482467755719858e-06,0.003180081480636805,-0.5271197981055491,12,0.009375,0.33381452892619023
5.872,5.508,0.23924759026824888,1.1859001412257069,-0.0010073594653451576,-1.4645977223993442e-06,0.003179171349940014,-0.5277622924606523,12,0.009375,0.336441757568517
5.917,5.553,0.24158855524609557,1.1845347472846106,-0.0010072469830253554,-1.4915839215896923e-06,0.003178475153480041,-0.5284293128282149,12,0.009375,0.33915181617339757
5.951,5.587,0.2438626299123034,1.183206637815304,-0.00100717248962583,-1.5261619682776978e-06,0.003178012855800587,-0.5290817174224297,12,0.009375,0.3417853101168024
5.98,5.6160000000000005,0.24613863972360703,1.1818756834849737,-0.0010071294568267906,-1.5684785858487827e-06,0.0031777441711583025,-0.5297391089658412,12,0.009375,0.3444219102174198
6.019,5.655,0.24848563487187525,1.1805014094151436,-0.001007116262366308,-1.6204429270243612e-06,0.003177658952307162,-0.5304215903798489,12,0.009375,0.3471416556917247
6.052,5.688,0.2507656084560264,1.1791646077933395,-0.0010071334525059462,-1.6754807458662818e-06,0.0031777606036265285,-0.5310884747680027,12,0.009375,0.3497846309319578
6.089,5.7250000000000005,0.2530478989694935,1.177824613194788,-0.001007165517791217,-1.7750880205403847e-06,0.0031779514511796913,-0.5317571905664127,12,0.009375,0.35243122034325847
6.119,5.755,0.25540175247602454,1.176440312140779,-0.0010072030421893752,-1.8025250757960868e-06,0.003178181365200574,-0.5324554691935514,12,0.009375,0.35516195572742504
6.155,5.791,0.2576881433571178,1.1750933379161281,-0.0010072712367055758,-1.8682366216964317e-06,0.003178597417979092,-0.5331403241452723,12,0.009375,0.35781561788056737
6.19,5.8260000000000005,0.25997612951463356,1.1737431239240872,-0.0010073685344837054,-1.9305550383861652e-06,0.003179195908274706,-0.5338303011786916,12,0.009375,0.3604722997360568
6.225,5.861,0.26233549378508453,1.1723484320272601,-0.0010075228964053183,-1.888654919274391e-06,0.0031801478399168673,-0.53454462234425,12,0.009375,0.36321305971236917
6.258,5.894,0.2646277510039546,1.1709911277315446,-0.001007751485893972,-2.1132044261264753e-06,0.0031815438958621494,-0.5352434791124038,12,0.009375,0.36587702632414
6.294,5.93,0.26692208141412205,1.169630305348388,-0.0010080302955659433,-2.3513793744659706e-06,0.0031832489909516025,-0.5359468969187228,12,0.009375,0.3685445700612733
6.33,5.966,0.269287901793544,1.168224644666617,-0.0010083747210061639,-2.607131721706043e-06,0.0031853578134284407,-0.5366755913337887,12,0.009375,0.371296476313304
6.364,6.0,0.27388483746044445,1.1654861478959748,-0.0010092215421546938,-3.0804383446133653e-06,0.0031905522954487893,-0.5380937909622355,12,0.009375,0.3766472880594027
6.399,6.035,0.27625431963268926,1.1640708193273623,-0.0010097456663495132,-3.235825588102936e-06,0.003193775898619024,-0.5388234088119986,12,0.009375,0.37940728819014846
6.433,6.069,0.2785537698972513,1.1626948858944515,-0.001010232144189778,-2.896720464630644e-06,0.003196795885169975,-0.5395278080621148,11,0.00859375,0.38208696435173894
6.469,6.105,0.28085170934416753,1.1613175266495743,-0.0010106830284653777,-2.190299641752149e-06,0.003199617831458818,-0.5402265002064914,11,0.00859375,0.3847660769270411
6.503,6.139,0.28321378545183995,1.1598994479929365,-0.0010110636870772072,-1.500210742349859e-06,0.0032020256960890846,-0.5406796135928604,11,0.00859375,0.38752113602166116
6.54,6.176,0.28550437318050487,1.1585225290511627,-0.0010114900774439058,-1.5800508351586812e-06,0.0032046532084205924,-0.5412689392126118,12,0.009375,0.39019371865180114
6.575,6.211,0.28778928506973195,1.15714614735408,-0.001011800825212239,-9.908117112110716e-07,0.003206613760344985,-0.5418559967890669,12,0.009375,0.39286116104435537
6.609,6.245,0.2901357484904336,1.1557305986606718,-0.0010114055180894983,-1.610312841013724e-06,0.0032041014133402036,-0.542703250797283,11,0.00859375,0.395601538516183
6.646,6.282,0.29241414368176394,1.1543563840538869,-0.001011906612555076,8.346379544924188e-07,0.0032074029762805744,-0.5433775855609732,11,0.00859375,0.3982622809752306
6.68,6.316,0.2946662314089347,1.152993477311848,-0.0010111852181228682,-5.479018380161361e-06,0.0032030407885109908,-0.5437484874453516,12,0.009375,0.40089465897209353
6.715,6.351,0.29696379072288365,1.1516049469613447,-0.0010129996584230874,-6.9459289891008205e-06,0.0032146362055093035,-0.5439163984444296,12,0.009375,0.40357920648245393
6.752,6.388,0.29920822174157596,1.1502486223288464,-0.0010123986274870288,-5.66838455245527e-06,0.0032107436031369174,-0.5447944278159909,11,0.00859375,0.40620162656825065
6.79,6.426,0.3014142108017536,1.1489115424900207,-0.0010130441935055495,-1.343279860270822e-06,0.0032142501571281357,-0.5457545913168712,11,0.00859375,0.40878119440589666
6.822,6.458,0.3036935353643719,1.1475262649427795,-0.0010126212443688672,2.276912217770933e-06,0.003211844793605349,-0.5464063876777859,11,0.00859375,0.4114484616112298
6.859,6.495,0.3059267857267927,1.1461676118932245,-0.0010112317942386623,3.977922756076805e-06,0.0032033785981065844,-0.5470159090134913,11,0.00859375,0.414062528421837
6.895,6.531,0.3081546774346619,1.1448095369017912,-0.0010108219439525883,5.577978028626224e-06,0.003201467135064438,-0.547679082908104,11,0.00859375,0.41667171778720485
6.931,6.567,0.3126736137673398,1.1420479764812828,-0.0010099757118134309,5.675890852975778e-06,0.003196294619484639,-0.549074605638047,11,0.00859375,0.4219676601621786
6.966,6.602,0.3148986053819784,1.1406847031328744,-0.001009400034905114,4.314456487718343e-06,0.0031921190597272034,-0.5497760912396951,11,0.00859375,0.424577085751785
6.999,6.635,0.3171923455985,1.1392771074154193,-0.0010088437692106975,3.020782943323143e-06,0.0031886028041563205,-0.5504962932904875,11,0.00859375,0.42726828806389133
7.036,6.672,0.3194201422261652,1.1379079475812204,-0.0010084074379836695,2.0311713627368007e-06,0.0031858498994107604,-0.5511994956709648,10,0.0078125,0.42988318317953556
7.071,6.707,0.32164976620955793,1.136535632448258,-0.0010080433418755384,1.1518539674584957e-06,0.0031835497071993524,-0.5519047998990375,10,0.0078125,0.43250128782440317
7.109,6.745,0.32394810028288124,1.1351196729295332,-0.0010078082405782889,6.717509309965221e-07,0.0031820698207710276,-0.5523744383197355,10,0.0078125,0.43520078423508174
7.142,6.7780000000000005,0.32618198143662114,1.1337417603888764,-0.0010075356456996955,-2.0593548727288343e-07,0.0031803323256041015,-0.5529799755568084,10,0.0078125,0.43782544954302743
7.18,6.816,0.3284176995836835,1.1323610212084945,-0.001007388379655378,-5.606938998804837e-07,0.0031794024865373976,-0.5535936430376349,10,0.0078125,0.44045316267755064
7.218,6.854,0.33072310181910475,1.1309354760314136,-0.0010072754028293204,-9.123672359567276e-07,0.0031786845714092352,-0.5542301120599705,10,0.0078125,0.4431637084747995
7.253,6.889,0.3329625989029328,1.1295489728567076,-0.001007201333761195,-1.2361438364446808e-06,0.003178208308807937,-0.5548518657793724,10,0.0078125,0.4457976671384737
7.289,6.925,0.3352039775673554,1.1281596394207294,-0.0010071601876518142,-1.5470797949659618e-06,0.003177935836295662,-0.5554775622225231,10,0.0078125,0.448434715813348
7.322,6.958,0.3375152407975846,1.1267252342438043,-0.0010071502363384506,-1.8598168792116946e-06,0.0031778555187848565,-0.5561262973285659,10,0.0078125,0.4511549099113856
7.359,6.995,0.33976077054948095,1.125329750636369,-0.0010071502312709694,-2.0147708955157454e-06,0.003177846017457902,-0.5567637343486871,10,0.0078125,0.4537987288093573
7.395,7.031,0.34200821971144835,1.123931073366519,-0.0010071837409167533,-2.151350240661854e-06,0.0031780439589613498,-0.5574072962399859,10,0.0078125,0.4564458642121697
7.43,7.066,0.34432559690508524,1.1224868078186752,-0.001007247562217331,-2.286042654159602e-06,0.0031784282489659777,-0.5580739704377218,9,0.00703125,0.4591764575598283
7.463,7.099,0.34657690261361496,1.121081582123206,-0.0010073223471231477,-2.4471974976353545e-06,0.0031788762280378392,-0.5587219655549484,9,0.00703125,0.46183032957039416
7.498,7.134,0.3511522201159006,1.1182195536354171,-0.001007625507717224,-3.095771579739997e-06,0.003180703266230103,-0.5597826742094882,9,0.00703125,0.4672270637316996
7.538,7.174,0.3534088684449341,1.1168053977820234,-0.0010078531581751878,-3.825606364993597e-06,0.0031820677140964137,-0.5603370968129879,9,0.00703125,0.469890200689991
7.569,7.205,0.3556674556170516,1.1153881445076317,-0.0010081385988897143,-4.269500150965787e-06,0.0031838007793641354,-0.5608965405895033,9,0.00703125,0.4725566257982263
7.605,7.2410000000000005,0.35799597582723036,1.1139249066313672,-0.0010084522761244774,-6.016854195862486e-06,0.0031862953503943234,-0.561479398999294,9,0.00703125,0.47530672969658105
7.639,7.275,0.36025737829273685,1.112501947906514,-0.0010088345123640333,-6.627513681620733e-06,0.0031888591436631955,-0.5620450030838117,9,0.00703125,0.47797857412387
7.675,7.311,0.36251964752132987,1.111076486257776,-0.001009234350932569,-6.829331132199134e-06,0.0031913971950147096,-0.5626050281904444,9,0.00703125,0.480652485673391
7.709,7.345,0.3648501971779715,1.1096060367054728,-0.0010095929616213556,-5.838375381533575e-06,0.003193273395223664,-0.5631690662371378,9,0.00703125,0.48340814958394707
7.744,7.38,0.36711065264729803,1.108177977831304,-0.001010095837474568,-5.9805093979296626e-06,0.0031964285597630045,-0.5636965047968725,9,0.00703125,0.48608191305084175
7.78,7.416,0.36936900240597337,1.1067493472676557,-0.0010105600934694967,-5.758045020805231e-06,0.0031992222950034824,-0.5642049767599692,9,0.00703125,0.4887542021294967
7.82,7.456,0.3716926529757042,1.1052774381181356,-0.0010110093244679909,-4.949949818068529e-06,0.003201728736584084,-0.5647045666615103,9,0.00703125,0.49150481451852057
7.861,7.497,0.37394353858594104,1.1038499897687142,-0.0010114472333702766,-2.841442436264705e-06,0.0032043238995612634,-0.5651547874734414,9,0.00703125,0.49417016530606006
7.901,7.537,0.3784847241093787,1.1009693413030288,-0.001011107040494702,-1.3573447184665082e-06,0.003202327995349001,-0.565930736074603,9,0.00703125,0.49954794402988656
7.937,7.573,0.38067732114493286,1.0995761166253133,-0.001012006789607122,-6.032228576664403e-06,0.003208237463971999,-0.5660204149783139,9,0.00703125,0.5021457424752853
7.97,7.606,0.38287414408152026,1.0981789670943778,-0.0010124186899176067,-1.1003117118666724e-05,0.003212385914368314,-0.5662320536193383,9,0.00703125,0.5047492128182142
8.008,7.643999999999999,0.3851693158207887,1.096723179660487,-0.001011935897569368,-6.951381136338627e-06,0.003208109259584092,-0.566687120442586,9,0.00703125,0.5074671404047055
8.042,7.678,0.3873868940653611,1.0953158914043122,-0.0010118212340324492,-5.080876303285935e-06,0.0032067979410050854,-0.5671065370563031,9,0.00703125,0.5100935663996211
8.078,7.7139999999999995,0.38958203254223883,1.0939168816378417,-0.0010109044174880996,-1.8940394717845858e-06,0.00320103277931399,-0.5677117031699319,9,0.00703125,0.5126966148546731
8.115,7.751,0.39180584180634126,1.0924968228514051,-0.0010109791753164683,3.546233817604877e-06,0.003201838668930489,-0.5686488248524305,8,0.00625,0.5153351550950416
8.147,7.783,0.3939643903660011,1.0911157562763725,-0.0010104972926942325,3.970532506245828e-06,0.003198809602616814,-0.569546018025838,8,0.00625,0.517897707878709
8.186,7.822,0.3961415225398755,1.089720355947732,-0.0010106554137580964,8.48881889938171e-06,0.003201748175830336,-0.5700310423369143,8,0.00625,0.5204836403178282
8.217,7.853000000000001,0.39840690486577174,1.0882683293304716,-0.0010099627397695092,6.7369662798448326e-06,0.003196683257141216,-0.5705278172410628,8,0.00625,0.5231744280054238
8.251,7.887,0.40060323599295294,1.0868585730005524,-0.001009603576374439,6.448451398606747e-06,0.00319434248929316,-0.5710446959193317,8,0.00625,0.5257842715505376
8.285,7.921,0.4027986107403906,1.0854472792545369,-0.001009277703002829,5.997720251091713e-06,0.003192123869378907,-0.5715807555842141,8,0.00625,0.5283941413402454
8.32,7.956,0.4050608004778867,1.0839912916769163,-0.0010089698880806457,5.39035426747866e-06,0.0031899453197846593,-0.5721461683922316,8,0.00625,0.5310843833804005
8.356,7.992,0.40725739171090525,1.0825759044013483,-0.0010087293390937044,4.915767651786236e-06,0.0031882430300611262,-0.5727037409052881,8,0.00625,0.5336974915268067
8.391,8.027,0.4094552950031063,1.0811579707093677,-0.0010084603384941278,4.298858947535919e-06,0.0031863155204268356,-0.5732669800238682,7,0.00546875,0.5363130822510451
8.426,8.062,0.41172221677562393,1.0796935074553646,-0.001008050643512507,3.1954369714427787e-06,0.0031837129024547724,-0.5738445932477932,7,0.00546875,0.5390118943869745
8.462,8.097999999999999,0.41392390414124114,1.0782702693319146,-0.0010078199833476569,2.2508780425244516e-06,0.003182233060032929,-0.5741532465338288,7,0.00546875,0.5416335415813849
8.495,8.130999999999998,0.4161290923034317,1.0768435727509569,-0.0010075522941821666,9.991849838393958e-07,0.0031805058214621207,-0.5746082232350294,7,0.00546875,0.5442600064992511
8.529,8.165,0.4184037906686555,1.0753705524033037,-0.0010073660838603171,-1.2664516124808987e-08,0.003179297120189413,-0.5750784104519046,7,0.00546875,0.5469699957238334
8.568999999999999,8.204999999999998,0.4228261835354711,1.072502969415697,-0.001007235579591443,-1.1554724034445315e-06,0.003178422381356455,-0.5759923139711182,7,0.00546875,0.5522407254596312
8.602,8.238,0.4251075198060593,1.071021750857741,-0.0010072225203539495,-1.67616714730843e-06,0.0031783109808755624,-0.5764643890095087,7,0.00546875,0.5549607445029348
8.639,8.274999999999999,0.4273238780840797,1.0695813897618747,-0.0010072231556927345,-2.046984214251651e-06,0.003178292620403633,-0.5769259643123277,7,0.00546875,0.5576040159802966
8.675,8.311,0.4295424189571483,1.0681379887251812,-0.0010072579696342697,-2.368938540647215e-06,0.0031784882433750846,-0.5773933834612808,7,0.00546875,0.560250774404899
8.71,8.346,0.43183009990904037,1.0666480365206459,-0.0010073308009642262,-2.69845083988308e-06,0.0031789172403275862,-0.5778777295295543,7,0.00546875,0.5629808736172811
8.743,8.379,0.43405231542893,1.065199213910623,-0.0010074367057564607,-3.0266898742204607e-06,0.003179549921902414,-0.5783501660169371,7,0.00546875,0.5656336700233688
8.78,8.415999999999999,0.436276636591607,1.0637475332560093,-0.0010075623550171338,-3.440312795926003e-06,0.003180294894163804,-0.578825114736859,7,0.00546875,0.5682897915111235
8.815,8.450999999999999,0.43857051866602226,1.062248675945836,-0.0010077494390848055,-4.102957570851171e-06,0.003181408247648159,-0.5793151951066113,7,0.00546875,0.5710299499385841
8.853,8.488999999999999,0.44079842702050237,1.060791124444976,-0.0010079663080878182,-5.8461547261584565e-06,0.003183239128136809,-0.579797790996456,6,0.0046875,0.5736922857576764
8.885,8.520999999999999,0.44302795086149266,1.0593309155568364,-0.001008242204201898,-6.665693068725701e-06,0.003185215604649627,-0.5802826457120485,6,0.0046875,0.5763574286346241
8.92,8.556,0.4453250584756752,1.0578250655634465,-0.0010085541885404593,-6.813511314141902e-06,0.003187189980090208,-0.5805138495282339,6,0.0046875,0.5791041152919857
8.958,8.594,0.4475569354221579,1.056360934029319,-0.0010089176506213535,-7.3694204943753585e-06,0.003189614260044931,-0.5808827875184425,6,0.0046875,0.5817733765855775
8.992,8.628,0.4497885329203164,1.0548957190188823,-0.0010093538729686047,-8.023851131303806e-06,0.0031925284233219205,-0.5812382048585305,6,0.0046875,0.584442998734983
9.027,8.662999999999998,0.4520871441434128,1.0533854708677208,-0.0010097771248452903,-8.490190259703734e-06,0.0031952984275683345,-0.5815848599402612,6,0.0046875,0.5871933556269211
9.066,8.702,0.45654318809046146,1.0504538432441846,-0.0010105605102906645,-8.143750851769044e-06,0.0032000240350466874,-0.5821809836653559,6,0.0046875,0.5925272818838659
9.097,8.732999999999999,0.45654318809046146,1.0504538432441846,-0.0010105605102906645,-8.143750851769044e-06,0.0032000240350466874,-0.5821809836653559,6,0.0046875,0.5925272818838659
9.132,8.767999999999999,0.4610514546752134,1.0474853605392054,-0.0010107567250637745,-3.7377298374149093e-06,0.0032000092251990085,-0.582631905386693,6,0.0046875,0.5979250923919117
9.168,8.803999999999998,0.4632508582916708,1.0460373680427606,-0.0010107797241343357,-2.5547609114678293e-06,0.0032002405156847545,-0.5826919929576287,7,0.00546875,0.6005583524508209
9.201,8.837,0.4654776811443205,1.0445703324604454,-0.0010117179930085873,-9.395766681308294e-06,0.003207675803474547,-0.5824756230408747,7,0.00546875,0.6032249857996077
9.235,8.870999999999999,0.46763366053089894,1.0431503258735593,-0.001011747301291107,-8.611280899108005e-06,0.0032075108778702325,-0.5824999688527637,7,0.00546875,0.6058065872061287
9.271,8.907,0.4698335555243599,1.0417012347616068,-0.0010119108630411433,-9.023345848372842e-06,0.0032086838358825727,-0.582759783015354,7,0.00546875,0.6084408618753677
9.306,8.941999999999998,0.47209431147792386,1.0402113738133711,-0.0010118704940162634,-6.703168600318414e-06,0.003207622418279412,-0.5830316734327939,7,0.00546875,0.6111483889992674
9.338,8.973999999999998,0.47428956182449294,1.0387683101493503,-0.0010114459627332782,-6.420700389202242e-06,0.0032049156078080166,-0.5833123216892981,7,0.00546875,0.6137754704259706
9.373,9.008999999999999,0.4764773651631821,1.0373250162785326,-0.0010108042642567039,-1.3337649314955333e-06,0.0032004488219670463,-0.5836542461155504,7,0.00546875,0.6163964589124619
9.409,9.045,0.47869811252580746,1.0358576882904063,-0.0010100958549572048,1.7209502981108635e-06,0.0031962755198314693,-0.5843141962385651,7,0.00546875,0.6190581820899066
9.447,9.082999999999998,0.48081748432145927,1.0344543474181314,-0.0010100421943221062,4.380639852335538e-06,0.0031960550360732344,-0.5852604425425938,6,0.0046875,0.6216000519551833
9.479,9.114999999999998,0.4829415217702712,1.0330451141115349,-0.0010097019071601439,4.319887590595732e-06,0.003194001226398872,-0.5861600566114273,6,0.0046875,0.6241490661953115
9.515,9.151,0.48515817429711433,1.0315720855043997,-0.0010101247433616997,9.650345704752457e-06,0.0031990080552837994,-0.5865915951497854,6,0.0046875,0.6268105247619998
9.553,9.189,0.48733464351559885,1.0301261646020745,-0.0010095408110904515,7.709581691360366e-06,0.0031945246015716625,-0.586984192697248,6,0.0046875,0.6294235126140174
9.589,9.225,0.48950921275643905,1.0286798088495066,-0.0010092560423721163,7.239400434340967e-06,0.00319255865426337,-0.5874095501399451,6,0.0046875,0.632035158904424
9.622,9.258,0.4917491786630804,1.027187989761738,-0.0010089854695812875,6.590305270931186e-06,0.0031905900433366946,-0.5878663358483384,6,0.0046875,0.6347264358232018
9.66,9.296,0.4939240204533123,1.0257382343490864,-0.0010087542549450275,5.922132463244082e-06,0.003188856955928559,-0.5883205115914177,6,0.0046875,0.6373401931893419
9.696,9.331999999999999,0.49610004226308974,1.0242863792755317,-0.0010085814985737185,5.434177208335735e-06,0.003187566979894956,-0.5887821921600819,5,0.00390625,0.6399560972531855
9.731,9.366999999999999,0.49834356247092726,1.0227877975652389,-0.0010082760726517273,4.279541910227937e-06,0.0031851743588733176,-0.5892623465117561,5,0.00390625,0.6426540835514085
9.763,9.399,0.5005228889045328,1.0213311860572394,-0.0010079769776836188,3.3805345231698725e-06,0.0031832692043519614,-0.5894738299186284,6,0.0046875,0.6452753772757837
9.804,9.44,0.5049571133317489,1.0183654959260438,-0.0010074952500091425,7.102987398029175e-07,0.0031801361382291014,-0.5900363158193226,5,0.00390625,0.6506099498754875
9.84,9.475999999999999,0.507146309819029,1.0168993832389994,-0.001007341858042049,-4.790641700102986e-07,0.0031791177212152993,-0.5906427661141616,5,0.00390625,0.6532447302593206
9.878,9.514,0.5093364792517623,1.0154315172345725,-0.0010073137923641805,-9.863895203744418e-07,0.003178914526444938,-0.590846428700211,5,0.00390625,0.6558812948329716
9.918,9.553999999999998,0.5115956059237569,1.013916704979896,-0.0010072935753405662,-1.6741678314443904e-06,0.003178749076695242,-0.5912075895555446,5,0.00390625,0.6586012781945081
9.955,9.591,0.5137905378583738,1.0124438963017284,-0.0010072939469810173,-2.1575117984483175e-06,0.003178722540214952,-0.5915638352816225,5,0.00390625,0.6612445510900086
9.987,9.623,0.5159876457087914,1.01096827960172,-0.001007334246876674,-2.6130153022384542e-06,0.0031789441296433273,-0.5919242225704835,5,0.00390625,0.6638911956735728
10.022,9.658,0.5182533117602235,1.0094453737012106,-0.0010074140962411347,-3.0864159390235332e-06,0.0031794079429169936,-0.5922969569687919,5,0.00390625,0.6666211196722253
10.055,9.690999999999999,0.5204542699748617,1.007964775837897,-0.0010075154298449795,-3.5017493600853544e-06,0.0031800030014042966,-0.5926601628127083,5,0.00390625,0.6692737385848156
10.093,9.729,0.522657328413022,1.0064816294255372,-0.0010076789776249963,-4.129231102004986e-06,0.0031809727073545935,-0.5930262121942137,5,0.00390625,0.6719295227933773
10.131,9.767,0.5271356595616012,1.0034627813459798,-0.0010080988099101691,-6.565542377450402e-06,0.003184296852329251,-0.5937778730554406,5,0.00390625,0.6773303463278283
10.162,9.798,0.5271356595616012,1.0034627813459798,-0.0010080988099101691,-6.565542377450402e-06,0.003184296852329251,-0.5937778730554406,5,0.00390625,0.6773303463278283
10.2,9.835999999999999,0.5316199064618269,1.000434322674858,-0.0010087035476911768,-8.02937764879375e-06,0.0031885127145956874,-0.5945189938832207,5,0.00390625,0.6827414491203264
10.234,9.87,0.5338291625373042,0.9989404236369887,-0.0010091034121413808,-8.997699916997034e-06,0.0031913069910239227,-0.5948614475598373,4,0.003125,0.6854083849542715
10.27,9.905999999999999,0.5360381189257916,0.9974458030966478,-0.001009478731137551,-9.719501797358868e-06,0.0031938659819960697,-0.5951850346188813,4,0.003125,0.6880754767948064
10.306,9.941999999999998,0.538311895712075,0.9959061971521536,-0.0010098591379965396,-1.0098518522921984e-05,0.00319633994787436,-0.5952371798695244,4,0.003125,0.6908214642926227
10.341,9.976999999999999,0.5405174687903329,0.9944124226368627,-0.0010102521008376504,-1.0157377429345457e-05,0.0031987968573869,-0.5954026103047254,4,0.003125,0.6934852801470068
10.375,10.011,0.5427203663479889,0.9929195170740966,-0.0010104275884329078,-8.661236904462689e-06,0.0031993773639162598,-0.5955393416550526,5,0.00390625,0.696146393573538
10.41,10.046,0.5449859297871059,0.9913858527333141,-0.0010104122218082615,-6.730296893894367e-06,0.0031986522570348745,-0.5956309100043428,5,0.00390625,0.6988822488341195
10.446,10.081999999999999,0.5471613155830458,0.9899134374245077,-0.0010098991057864333,-1.5476934630488333e-06,0.0031948682949799975,-0.5957636616534864,5,0.00390625,0.7015090929868596
10.481,10.116999999999999,0.5493060309706169,0.9884605183310482,-0.0010109782693448893,-8.726803895698774e-06,0.0032027913128956226,-0.5955238743043321,5,0.00390625,0.7040996099209528
10.515,10.151,0.551507491359294,0.9869688492301064,-0.0010115783302933855,-1.0802528740341131e-05,0.0032071200627898123,-0.5952311377863998,5,0.00390625,0.7067588399880246
10.55,10.186,0.5536863830935869,0.9854939938441573,-0.0010118801351212958,-1.2108200190746387e-05,0.003209512368935858,-0.5953029914996599,5,0.00390625,0.7093899552647148
10.587,10.222999999999999,0.5558666637939553,0.9840181146383256,-0.0010117509682012263,-8.16980812310613e-06,0.0032073652115930384,-0.5954102765313242,6,0.0046875,0.7120227946754282
10.623,10.258999999999999,0.5581095075735312,0.9824996349021496,-0.0010117443887031133,-6.780791737547147e-06,0.0032068771611902273,-0.5955364684178531,6,0.0046875,0.7147313235988032
10.659,10.295,0.5602856442794587,0.9810264825932804,-0.0010114450463441782,-2.288543033455147e-06,0.0032043113661524136,-0.5959253769935386,5,0.00390625,0.7173592027223574
10.693999999999999,10.329999999999998,0.5624536224758395,0.9795567827523883,-0.0010103975471804846,-3.1667249919816157e-06,0.003197800835421493,-0.5962385687660536,5,0.00390625,0.7199783909710904
10.727,10.363,0.5646696571569108,0.9780543939489519,-0.0010094129166809789,-1.1301868505310924e-06,0.0031918841573411894,-0.596476415373073,5,0.00390625,0.722655699661623
10.762,10.398,0.5667859027095521,0.9766168413483235,-0.0010099772697976586,6.0629749981598965e-06,0.0031964541685018835,-0.5971728084507825,5,0.00390625,0.7252140297260689
10.799,10.434999999999999,0.5710655679273744,0.9737010780179249,-0.0010095921508529483,7.332107180456459e-06,0.0031946092254480827,-0.5987530881351579,4,0.003125,0.7303925637458213
10.836,10.472,0.5732240275183798,0.9722285752094012,-0.0010094271042739057,8.054123152435921e-06,0.003193994433568396,-0.5991235668213681,4,0.003125,0.7330054572237712
10.872,10.508,0.5753800828444499,0.9707571539605048,-0.001009258066183811,7.979996730130246e-06,0.0031929050708462917,-0.5992717610637841,4,0.003125,0.7356157551111356
10.906,10.542,0.5776033040656013,0.9692388346900489,-0.001009080453611047,7.798707087351007e-06,0.003191731570147967,-0.5995881976904996,4,0.003125,0.7383079672137041
10.942,10.578,0.5797616968729794,0.9677636980475425,-0.0010088611292757427,7.048921429835582e-06,0.003190031594619971,-0.59991170847152,4,0.003125,0.7409222907638804
10.975999999999999,10.611999999999998,0.5819212719803287,0.966286803789678,-0.0010086882711309968,6.4176085802022016e-06,0.003188675494075384,-0.6002430920879551,4,0.003125,0.7435385822792119
11.012,10.648,0.5841477425406978,0.964762909254895,-0.001008413574611601,5.039327342969844e-06,0.0031863492212725756,-0.6005902614489659,4,0.003125,0.746236623366618
11.047,10.683,0.5863113192692612,0.9632807933149928,-0.0010080300606271839,3.715213185029549e-06,0.0031836170081510195,-0.6009254832397029,4,0.003125,0.7488591663919454
11.086,10.722,0.5884776343233783,0.9617958799342143,-0.001007764693311066,2.214253254711325e-06,0.003181889597843815,-0.6012569633124962,4,0.003125,0.7514855495822109
11.119,10.754999999999999,0.5907123484558295,0.9602630920962404,-0.001007560306901075,8.708057233729674e-07,0.0031805480343678194,-0.6015942555808321,4,0.003125,0.7541954178096378
11.154,10.79,0.5928840658382122,0.9587725904160641,-0.0010074094372318695,-3.4909477337324074e-07,0.0031795397872910586,-0.6019171038572109,3,0.00234375,0.7568294169834325
11.189,10.825,0.5950580954438323,0.9572796248251346,-0.0010073671757330795,-1.1011327605179013e-06,0.003179237509211292,-0.6022389601365986,4,0.003125,0.7594667169250039
11.223,10.859,0.5972996404052835,0.955739675624013,-0.0010073620499996654,-1.6909890467748345e-06,0.003179170533940495,-0.6023103875402286,3,0.00234375,0.7621862697110778
11.26,10.895999999999999,0.5994786676472237,0.9542416957958523,-0.0010073335589321428,-2.20152417925398e-06,0.0031789646717810182,-0.60279122870041,3,0.00234375,0.7648305282624858
11.298,10.934,0.6039073378825407,0.9511949045369104,-0.001007499979827249,-3.4583615911179077e-06,0.0031799155504436275,-0.6030998598392303,3,0.00234375,0.7702060335605022
11.333,10.969,0.6060918932198774,0.9496909334770405,-0.0010076212420685147,-4.05054136295136e-06,0.003180626773325369,-0.603327406026548,3,0.00234375,0.7728582422571949
11.368,11.004,0.6082785690972197,0.9481846741850714,-0.0010077773724210988,-5.372566252573923e-06,0.0031819170937452982,-0.6035584040767799,3,0.00234375,0.7755134952483793
11.403,11.039,0.6105335627892762,0.9466306018168842,-0.0010079944745805189,-6.371486910286423e-06,0.0031835880033944386,-0.6038003088683594,3,0.00234375,0.7782521331355009
11.44,11.075999999999999,0.6127238875564109,0.9451202936807189,-0.0010082245097612526,-7.067142985420385e-06,0.0031852425480089212,-0.6040333540581462,3,0.00234375,0.7809126882000863
11.474,11.11,0.6149154708608212,0.9436081217554513,-0.0010085462776348378,-8.314795890518873e-06,0.0031876394506240523,-0.6042593392890483,3,0.00234375,0.7835753375032687
11.508,11.143999999999998,0.6171739734677608,0.9420489534983257,-0.0010088813981642235,-9.417479733835732e-06,0.003190075895420973,-0.6044800407778954,3,0.00234375,0.786319757237854
11.543,11.178999999999998,0.6193662483250042,0.9405349373301177,-0.0010092330352350597,-1.026381758105744e-05,0.0031925301451161394,-0.6046759046561945,3,0.00234375,0.7889840233670716
11.58,11.216,0.6215578587478275,0.939020910792613,-0.0010095835392568628,-1.1013362004231578e-05,0.003194945917105638,-0.6048483464124373,3,0.00234375,0.7916477486910675
11.61,11.245999999999999,0.623814167166454,0.9374611946864854,-0.0010098975211682883,-1.1133875210988535e-05,0.0031969244146243946,-0.6049962617804466,3,0.00234375,0.7943906745033487
11.648,11.283999999999999,0.6260022890283911,0.9359477761807383,-0.0010101418080572348,-1.0487345965444755e-05,0.0031982190983294925,-0.6051083983878961,3,0.00234375,0.79705118438986
11.683,11.318999999999999,0.6281878717026773,0.9344364191189807,-0.0010102604755945974,-8.980581722235783e-06,0.0031984599863065263,-0.6051803508801991,3,0.00234375,0.7997084333044829
11.717,11.353,0.6304307875716678,0.9328871165286609,-0.001009967979246379,-6.103138791601255e-06,0.003195720195715674,-0.6051736142529955,3,0.00234375,0.8024344212193023
11.752,11.388,0.6325775920150454,0.9314040599649126,-0.001010198525422605,-8.317670690049088e-06,0.0031978952029079947,-0.6049222917404012,4,0.003125,0.8050436789852929
11.787,11.423,0.6346933032879165,0.9299411735396709,-0.001011215772772786,-1.2064201733427934e-05,0.0032053882078414875,-0.6044201308353422,4,0.003125,0.8076158902680827
11.823,11.459,0.636887914450929,0.9284261399422028,-0.0010114953852145454,-1.1547158062896933e-05,0.003206850789332625,-0.604278902271887,4,0.003125,0.8102826570292142
11.857,11.492999999999999,0.6390616641787216,0.9269268618559706,-0.0010114765702035657,-9.1242424344068e-06,0.0032060248816260586,-0.6043547089529535,4,0.003125,0.8129233051805086
11.891,11.527,0.641226362281047,0.9254326637783414,-0.0010116455551307385,-8.43320643607995e-06,0.0032068213339746386,-0.6043928032142908,5,0.00390625,0.815553618045816
11.927,11.562999999999999,0.6434547666265431,0.923894045969364,-0.0010116059671782043,-6.672575040082236e-06,0.003205986122768736,-0.6044496764168753,4,0.003125,0.8182615934314369
11.969,11.604999999999999,0.6477722189974047,0.9209123385347382,-0.0010101995882814928,-4.327598032836898e-06,0.0031965117615981456,-0.6047554067486074,5,0.00390625,0.8235085901187245
12.011,11.646999999999998,0.6499965779550805,0.9193770538552429,-0.0010098288531657403,1.8876601499207298e-06,0.0031946309262385238,-0.6047463274820222,5,0.00390625,0.8262113427562563
12.048,11.684,0.6521330016468059,0.9178999628482257,-0.0010094723550001794,3.8249828720516744e-06,0.0031925566099128967,-0.6053720776109576,4,0.003125,0.8288086690803013
12.084,11.719999999999999,0.654226489802468,0.9164496909262202,-0.001009689239895268,6.912536120889733e-06,0.003195120832728178,-0.6062317702743006,4,0.003125,0.8313554280609775
12.122,11.758,0.6563819264658616,0.9149546172907228,-0.001009189386864704,4.969704918878355e-06,0.0031912576757482628,-0.6068658227603209,4,0.003125,0.8339786231329195
12.162,11.798,0.6585175421777811,0.9134711837867354,-0.0010098219672809543,1.1135476635448753e-05,0.003197861154782884,-0.607271113229284,3,0.00234375,0.8365788980087259
12.193,11.828999999999999,0.6606648590320127,0.9119798924274353,-0.0010093928950802439,9.375579655153349e-06,0.0031943796165519994,-0.6076093533148016,3,0.00234375,0.8391932659229243
12.228,11.863999999999999,0.6628769559783314,0.9104421812584345,-0.0010091674003767474,8.729487364227311e-06,0.003192691730188129,-0.6079741355357351,3,0.00234375,0.8418873202169546
12.262,11.898,0.6650235582542326,0.9089486013732048,-0.0010089730675933266,8.011401299897709e-06,0.003191161289740563,-0.6082502866352839,3,0.00234375,0.8445024076350856
12.298,11.934,0.667171369021344,0.9074534403323035,-0.0010088048302162242,7.310652154353262e-06,0.003189803136995462,-0.6085321276672925,3,0.00234375,0.8471193901779293
12.334,11.969999999999999,0.6715372388889068,0.9044108671299901,-0.0010080949097133023,3.9627240070960465e-06,0.003184032511098563,-0.6091138834311028,3,0.00234375,0.8524408629208081
12.368,12.004,0.673691720159084,0.9029081244141965,-0.0010078238006747467,2.4180321541016587e-06,0.0031822672054054014,-0.6093963269927488,3,0.00234375,0.8550676528274079
12.403,12.039,0.6759141948938375,0.9013571105799534,-0.0010076176834053346,9.9275302814955e-07,0.0031809100152652594,-0.6096832270357209,3,0.00234375,0.8577778258589008
12.437,12.072999999999999,0.6780740003226686,0.899849049934039,-0.0010074612211394517,-3.1647958895927585e-07,0.0031798671017800478,-0.609957225807035,3,0.00234375,0.860412025244324
12.471,12.107,0.680236197671192,0.8983385741020234,-0.0010074185639888551,-1.1531809156526996e-06,0.0031795517018542545,-0.6102292951028601,2,0.0015625,0.863049568535545
12.507,12.142999999999999,0.6824661481181643,0.8967798931150125,-0.0010073899933375832,-1.8378761500587073e-06,0.003179334885512184,-0.6105114833769166,2,0.0015625,0.8657702606194129
12.541,12.177,0.6846321367129667,0.8952653245634381,-0.001007440141171271,-2.5457935231026716e-06,0.0031796017888142216,-0.6105318706594298,2,0.0015625,0.8684132559826764
12.574,12.209999999999999,0.686800672976796,0.8937486530222529,-0.0010074723690783223,-3.1103975458558758e-06,0.0031797667599138494,-0.6107049736795334,2,0.0015625,0.8710595443440202
12.611,12.247,0.6890371629459277,0.8921837660327965,-0.0010075640656232732,-3.7630079407657498e-06,0.0031802915767807703,-0.6108868799546833,2,0.0015625,0.8737891521311933
12.645,12.280999999999999,0.6912101533488334,0.8906626772774175,-0.001007688096460492,-4.7786877250484544e-06,0.0031811618999071658,-0.6110652872617565,2,0.0015625,0.8764416223558822
12.681000000000001,12.317,0.6933852718684257,0.8891394363142557,-0.0010078857498458695,-6.199827794638439e-06,0.003182859168224811,-0.6112488685082458,2,0.0015625,0.8790970702665232
12.717,12.353,0.695628206012153,0.8875680851406557,-0.0010081076118797876,-7.180489406920445e-06,0.0031845564083663003,-0.6114366645235977,2,0.0015625,0.8818356644467318
12.753,12.389,0.6978067267105971,0.8860412105143759,-0.0010083438653472644,-7.91180129354853e-06,0.003186261327116019,-0.6116156062684522,2,0.0015625,0.8844959837053784
12.786,12.421999999999999,0.6999861932090299,0.8845129944329542,-0.0010086784536041497,-9.131491262455098e-06,0.0031887272643158124,-0.6117857267684009,2,0.0015625,0.8871578474527004
12.824,12.459999999999999,0.7022318652062367,0.8829377955842017,-0.0010089922037224072,-1.0333563137943685e-05,0.0031910664796350376,-0.6119443726623882,2,0.0015625,0.8899008921355575
12.857,12.492999999999999,0.7044112606571575,0.881408754407109,-0.0010093240946155817,-1.1215632692220037e-05,0.0031934105447847406,-0.612077851320013,2,0.0015625,0.8925631715072124
12.893,12.529,0.7065895982673595,0.8798799227046658,-0.0010096315887848754,-1.1729352562846577e-05,0.003195480356369689,-0.6121847668317567,2,0.0015625,0.8952244646362036
12.929,12.565,0.7088324924949496,0.878304951218856,-0.0010099039836810042,-1.1591972261189326e-05,0.0031971178568982856,-0.6122642935474104,2,0.0015625,0.8979651050170765
12.965,12.600999999999999,0.7131788071767045,0.8752542169450183,-0.001009990992822049,-8.778689961675112e-06,0.003196735794869856,-0.6122954620234913,2,0.0015625,0.9032752306880263
13.001,12.636999999999999,0.7153988904016921,0.8736973639114144,-0.0010096516201747278,-6.660612851082573e-06,0.003193948045363867,-0.6121420379774397,3,0.00234375,0.9059867912892509
13.036,12.671999999999999,0.7175136331469361,0.8722136257973128,-0.0010107769508128292,-1.2585664116190567e-05,0.0032028211036073547,-0.6116593954675619,3,0.00234375,0.9085701255049109
13.071,12.706999999999999,0.7196129460828083,0.8707414270166494,-0.0010109191287127027,-1.1084861786495285e-05,0.0032030789624000774,-0.6112908834928318,4,0.003125,0.9111342011770601
13.108,12.744,0.7218263265035321,0.8691904285504547,-0.001011654274007033,-1.4418629581493262e-05,0.003208876751318631,-0.611177201791073,4,0.003125,0.9138369126172589
13.144,12.78,0.7239872108891378,0.8676777702039048,-0.0010113990428777704,-1.001311531305082e-05,0.0032058205173725375,-0.6114057246343492,5,0.00390625,0.9164746306843278
13.174,12.809999999999999,0.7261429880799437,0.8661675397605303,-0.0010115256329289654,-8.57873365968092e-06,0.003206119861126985,-0.6114855228381076,6,0.0046875,0.9191067726425994
13.213,12.848999999999998,0.728362030855367,0.8646112578247528,-0.0010114067753868236,-5.840475141097365e-06,0.00320448631457844,-0.6118303019013702,6,0.0046875,0.921817153483512
13.25,12.886,0.7305137209160149,0.8631004616609242,-0.0010110239463188113,-5.831961930641427e-07,0.0032018197248164415,-0.6123003899422542,6,0.0046875,0.9244462740904317
13.28,12.915999999999999,0.7326629061264055,0.8615914943218947,-0.0010104481571545747,7.859423398595965e-07,0.003198360200508405,-0.6126558469157098,8,0.00625,0.9270722937969114
13.317,12.953,0.7348698437647373,0.8600407799247491,-0.0010094498496060443,2.0483504666533824e-06,0.00319228830899002,-0.6131229279876689,8,0.00625,0.9297695681398361
13.350999999999999,12.986999999999998,0.7370044953675708,0.8585379189444496,-0.0010089529726297203,2.1718553899678425e-06,0.003189253957441297,-0.6141655009390533,8,0.00625,0.9323801865707039
13.387,13.023,0.7390802259363823,0.8570719309633374,-0.0010095050346839787,7.047517326052269e-06,0.0031941466316094337,-0.6154257145056858,7,0.00546875,0.9349214024519433
13.425,13.061,0.741212159038504,0.8555622947396103,-0.0010089652215330529,4.733373310038578e-06,0.0031896393398941156,-0.6167714742089973,9,0.00703125,0.9375337080006706
13.459,13.094999999999999,0.7432952279365487,0.8540838981354467,-0.0010090214597244275,6.391492946456134e-06,0.003190680634781651,-0.6177035722399663,9,0.00703125,0.940088083179301
13.494,13.129999999999999,0.7454296883360532,0.852565935663857,-0.0010091833286237084,9.011430401750419e-06,0.00319291543964417,-0.6188776726678704,9,0.00703125,0.9427072684079948
13.527,13.162999999999998,0.7476265281183863,0.8510005238503401,-0.0010090085856478519,8.440975727977827e-06,0.0031915700168439532,-0.6198126091829911,10,0.0078125,0.9454047893393575
13.562,13.197999999999999,0.7497576521125217,0.8494784475064369,-0.001008899293476903,8.12842438394785e-06,0.0031907607899639224,-0.6207266719889374,10,0.0078125,0.9480236451725506
13.599,13.235,0.7540855228901999,0.8463768789412252,-0.0010084882413538797,5.711130090783777e-06,0.003187116238660564,-0.6229800457861824,10,0.0078125,0.9533481359507796
13.632,13.267999999999999,0.7562189135445914,0.8448425933750783,-0.0010080416081354425,3.5879881124977393e-06,0.0031836808979438546,-0.6240153836892829,10,0.0078125,0.9559759464239171
13.667,13.302999999999999,0.7583548452811032,0.8433031549900273,-0.0010077295526050925,1.5893804836731771e-06,0.003181633271117103,-0.6250511368247599,12,0.009375,0.9586088298099422
13.702,13.338,0.7605562388592073,0.8417129292771023,-0.0010075801718814718,5.11454521898365e-07,0.0031806484383055354,-0.6261226165050219,12,0.009375,0.9613245160038472
13.738,13.373999999999999,0.7626962820055431,0.8401626946387444,-0.0010074839335874781,-7.824798364811764e-07,0.0031799792512528127,-0.6276919034738899,12,0.009375,0.9639670549538237
13.775,13.411,0.7648359102612344,0.8386079618401014,-0.0010074843644802024,-1.8424308401323957e-06,0.0031799198131471683,-0.6289635069752428,13,0.01015625,0.9666118995896632
13.807,13.443,0.7670410917115685,0.8370012895819225,-0.0010075182465663114,-3.018559132061815e-06,0.0031800588997062,-0.6302736554364392,12,0.009375,0.9693403095614415
13.843,13.479,0.7691845273802542,0.8354355587008933,-0.001007689995577557,-3.581411154125051e-06,0.0031810854424230714,-0.6318060558143205,11,0.00859375,0.9719947077338343
13.879,13.514999999999999,0.7713264601039834,0.8338660382208335,-0.0010077464282069147,-5.595401091953328e-06,0.0031817948114958236,-0.6329417690814866,11,0.00859375,0.9746501305495662
13.914,13.549999999999999,0.7735332375248172,0.8322454274937557,-0.0010079330966647725,-7.065377244972246e-06,0.0031834369584260577,-0.6340078344221672,10,0.0078125,0.9773880578155506
13.95,13.585999999999999,0.7756769944795039,0.8306677827852159,-0.0010081756537016588,-8.326161719872295e-06,0.0031853545564911553,-0.6352013325312593,10,0.0078125,0.9800497596597005
13.986,13.622,0.7778198763127977,0.8290871810997017,-0.0010083978089414636,-9.9645906487213e-06,0.0031872726549493752,-0.636144598579478,10,0.0078125,0.9827125109135189
14.019,13.655,0.7800285064124618,0.8274547228010897,-0.0010086773415201589,-1.1622255066467166e-05,0.0031895521939692465,-0.637267978073269,9,0.00703125,0.9854589571652866
14.054,13.69,0.7821712249459128,0.8258672525999852,-0.0010088667875912949,-1.273558436367226e-05,0.0031910960792709106,-0.6383534941571134,9,0.00703125,0.9881256600645594
14.091,13.726999999999999,0.7843109493774839,0.8242787665620678,-0.0010089291050962741,-1.2240269862089302e-05,0.003191316203473253,-0.6391652959551525,8,0.00625,0.9907905631651843
