timestamp,time_elapsed,x,y,z,roll,pitch,yaw,lateral_error_pixels,lateral_error_m,distance_traveled
66.786,0.028999999999996362,0.500612583981356,0.5018111108639275,-0.0010071501906226375,-1.2259285055473922e-06,0.0031779084265715217,0.011186766307520073,211,0.16484375,9.875240621297445e-06
66.794,0.03699999999999193,0.500612583981356,0.5018111108639275,-0.0010071501906226375,-1.2259285055473922e-06,0.0031779084265715217,0.011186766307520073,211,0.16484375,9.875240621297445e-06
66.804,0.046999999999997044,0.500612583981356,0.5018111108639275,-0.0010071501906226375,-1.2259285055473922e-06,0.0031779084265715217,0.011186766307520073,211,0.16484375,9.875240621297445e-06
66.833,0.0759999999999934,0.5006128939234438,0.5018120361927009,-0.001007150180429059,-1.2258743881159747e-06,0.0031779083674761286,0.011192518943106442,211,0.16484375,1.0851097904214504e-05
66.869,0.11199999999999477,0.5010028574030652,0.5018161143755553,-0.0010071627058087437,-1.8089734614510206e-06,0.0031776170920590984,0.010142799577930052,210,0.1640625,0.0004008359014720168
66.906,0.1490000000000009,0.5020372517193527,0.5018251480027585,-0.001007226733202568,-2.0801151046880554e-06,0.003178000004838363,0.0051421229978205535,209,0.16328125,0.0014352696634830555
66.942,0.18499999999998806,0.5036318129524525,0.5018279927315182,-0.0010072917267715045,-2.3160269820439074e-06,0.003178398653724658,-0.003565319282710767,207,0.16171875,0.003029833434107073
66.977,0.21999999999999886,0.5057809021266271,0.5018092679269962,-0.0010073520204961356,-2.563273154005308e-06,0.0031787758742075982,-0.01589009277248935,205,0.16015625,0.0051790041804319585
67.015,0.25799999999999557,0.5085048791904633,0.5017473108721086,-0.0010072300365580843,-1.6055478051895084e-06,0.0031782343661321435,-0.03189232116828874,202,0.1578125,0.007903685762003657
67.053,0.29599999999999227,0.5141100657500185,0.5014803914847825,-0.0010085909126819718,-1.028104287530186e-05,0.003188568381157617,-0.06494000175784227,199,0.15546875,0.01351541854551336
67.088,0.33099999999998886,0.5169909212884105,0.5012705880948508,-0.0010088605364475568,-1.1735712490884287e-05,0.0031907215657507415,-0.08194607735594686,196,0.153125,0.016403903632113387
67.125,0.367999999999995,0.5197779950122776,0.5010200362047827,-0.0010088824654215824,-1.1537052857051431e-05,0.0031908012146521993,-0.09841404206532231,193,0.15078125,0.019202216729657537
67.158,0.40099999999999625,0.5225492491972148,0.5007281439730336,-0.0010089155301304872,-1.1114411489853085e-05,0.0031908881959516644,-0.11480281167183831,190,0.1484375,0.021988800809222935
67.193,0.43599999999999284,0.5253570343580128,0.5003850520431014,-0.001008773067309187,-1.0388200278225347e-05,0.003189820717910582,-0.1314159733235623,186,0.1453125,0.0248174700337139
67.23,0.472999999999999,0.5280193277914391,0.5000130142711624,-0.0010094878866524527,-1.4249346128249016e-05,0.0031954678855904027,-0.1471776041940465,184,0.14375,0.027505632683073863
67.265,0.5079999999999956,0.5306995192426724,0.4995966991978443,-0.0010096125746933762,-1.6732373580970194e-05,0.0031964402109019205,-0.16309603536057932,181,0.14140625,0.030217964605154215
67.298,0.5409999999999968,0.5334990471873289,0.4991138335961168,-0.001009649649410322,-1.7059163950304268e-05,0.003197355112062572,-0.1797966363967983,178,0.1390625,0.033058829949066865
67.333,0.5759999999999934,0.5362170747003995,0.49859922146287045,-0.0010089236089302206,-1.2368436570571685e-05,0.003191310733708924,-0.19605415285859026,175,0.13671875,0.035825145044910627
67.371,0.6139999999999901,0.5389287103238152,0.49804014254261614,-0.0010083465076402148,-8.648547818531744e-06,0.003186507868368745,-0.21232197615779344,171,0.13359375,0.03859381566332116
67.407,0.6499999999999915,0.5417158358085217,0.4974174781532633,-0.0010079015978386383,-5.796247739822413e-06,0.003182810541360852,-0.22909969353777634,168,0.13125,0.041449648188044655
67.44,0.6829999999999927,0.5444145092707925,0.4967677257595322,-0.0010076113192771206,-3.3437940760887574e-06,0.0031806044463862453,-0.24540410810707283,165,0.12890625,0.04422543935978724
67.481,0.7239999999999895,0.5471063965764693,0.4960728999539523,-0.001007404549107263,-2.027096919380053e-06,0.00317940708412335,-0.26173083646890655,161,0.12578125,0.047005554495274215
67.512,0.7549999999999955,0.5498715400741447,0.4953100492466545,-0.001007273039109833,-1.2135198711587686e-06,0.003178643914805192,-0.2785763576603083,158,0.1234375,0.04987399654007161
67.55,0.7929999999999922,0.5552072941549271,0.4936953732299083,-0.0010072373864626026,-7.876579695515345e-07,0.0031784488146918586,-0.3106811462110191,154,0.1203125,0.055448892737159784
67.586,0.8289999999999935,0.5579381036060588,0.49279682214474785,-0.0010073254545444991,-1.1502522448243013e-06,0.003178969502578279,-0.3268871108396159,151,0.11796875,0.05832373435210715
67.622,0.8649999999999949,0.5605740987645225,0.491883136116043,-0.001007491269146614,-1.8686529207441387e-06,0.003179949343278359,-0.34209846384844617,147,0.11484375,0.06111358965919647
67.657,0.8999999999999915,0.5631980531231234,0.4909287697918981,-0.0010077339611419683,-3.012883340325224e-06,0.0031813773076879554,-0.3571821731090334,144,0.1125,0.06390571278625998
67.691,0.9339999999999975,0.5658849240262098,0.48990514794040074,-0.001008041600448404,-5.521875421606181e-06,0.003183587996841336,-0.37218207547851173,141,0.11015625,0.06678096528729621
67.724,0.9669999999999987,0.5684789922380911,0.4888728629000034,-0.0010084713587696498,-7.897261798636644e-06,0.0031870336471464845,-0.38660576105045025,138,0.1078125,0.0695728826020677
67.763,1.0060000000000002,0.5710566498525845,0.4878040285777955,-0.0010088929033319795,-1.0119692570100437e-05,0.003190381802102172,-0.40073881060823974,135,0.10546875,0.07236335309750139
67.795,1.0379999999999967,0.5736920107746364,0.4866670958253437,-0.0010091327795134046,-1.1107448175119782e-05,0.003192190735264092,-0.4149733423714518,132,0.103125,0.07523350000542711
67.855,1.097999999999999,0.5787410642645083,0.48436616600091603,-0.0010099193333097563,-1.5371802565606867e-05,0.003198500265103057,-0.4415948345407311,126,0.0984375,0.080782228241893
67.89,1.1329999999999956,0.5812774026892483,0.4831506594729956,-0.001009395530743716,-1.093964335163422e-05,0.0031938302984734304,-0.4548594989581513,122,0.0953125,0.08359478379231858
67.927,1.1700000000000017,0.5836993971706893,0.48195008022920205,-0.0010101229737797465,-1.5724735068251578e-05,0.0031998114632418376,-0.46658448369663424,120,0.09375,0.08629801293331986
67.966,1.208999999999989,0.5861073378181674,0.48071828282319223,-0.0010104630459966644,-1.6967520715145846e-05,0.0032021974191836127,-0.4782047575345444,118,0.0921875,0.08900273158989573
67.996,1.23899999999999,0.5886009126258801,0.4794080198930919,-0.0010103354228245508,-1.5994716771192993e-05,0.0032012375194904992,-0.4904727161259064,116,0.090625,0.09181959230133581
68.035,1.2779999999999916,0.5910072017306224,0.47810637363916186,-0.0010097607226895663,-1.1747989909211896e-05,0.0031962774360630667,-0.5022048164589799,114,0.0890625,0.09455537559428345
68.066,1.3089999999999975,0.593397692876361,0.4767786801897485,-0.0010090605492291925,-8.12492753524199e-06,0.0031907355423184663,-0.513751118134937,112,0.0875,0.09728982577914146
68.1,1.3429999999999893,0.5958433782088399,0.47538138791117074,-0.0010086821997920374,-5.007756978788668e-06,0.0031873711338291514,-0.5254604742963042,110,0.0859375,0.10010652641237806
68.14,1.3829999999999956,0.5982035660253104,0.47399707814003006,-0.0010084774233977654,-1.6344938044813408e-06,0.003186052007755872,-0.5366355842239686,108,0.084375,0.10284272817238982
68.172,1.414999999999992,0.6005499535605878,0.4725855998709011,-0.0010083320817322779,3.204712583203567e-07,0.0031852724545059757,-0.5476195317276126,106,0.0828125,0.10558094024780114
68.207,1.4499999999999886,0.6029530534992806,0.4711035817449487,-0.0010082446025325327,1.9729263240346576e-06,0.0031848319782948812,-0.5587441393377052,104,0.08125,0.10840428348605553
68.241,1.4839999999999947,0.6052715790202279,0.4696386827772541,-0.001008217346984478,3.2638411533769615e-06,0.0031847414369726894,-0.5693584221481928,102,0.0796875,0.11114681690915841
68.282,1.5249999999999915,0.607576414928413,0.46814823524757804,-0.0010082450745420649,4.261397818354631e-06,0.0031849734435165943,-0.5797914788015271,100,0.078125,0.11389157598827208
68.318,1.5609999999999928,0.6122144082343483,0.46504537486906355,-0.0010084198373759533,5.225675789507989e-06,0.003186469341825672,-0.6006205262819916,98,0.0765625,0.11947186089946105
68.351,1.593999999999994,0.6144779291031447,0.4634796432753353,-0.0010085957643301974,5.519748450078186e-06,0.0031876894394721206,-0.6107159630795777,96,0.075,0.12222414034513436
68.392,1.634999999999991,0.6167949969337089,0.4618416693509583,-0.001008845967081045,5.553838851846055e-06,0.003189249381193235,-0.6209344450521647,94,0.0734375,0.12506170301552147
68.426,1.668999999999997,0.6190292821553063,0.4602283581930416,-0.001009163773778913,5.319077415808804e-06,0.0031911038145385692,-0.6306754287599633,91,0.07109375,0.12781757009208866
68.471,1.7139999999999986,0.6212489747827723,0.4585925428494207,-0.0010095609446687873,4.7906934823996255e-06,0.0031933140806965476,-0.6402385530755575,89,0.06953125,0.1305749106947079
68.501,1.7439999999999998,0.6235159822479952,0.4568891571887878,-0.0010096791352008742,1.3513877659237674e-06,0.003193643684039559,-0.6496880117345215,87,0.06796875,0.1334105491688837
68.531,1.774000000000001,0.6257016057936122,0.45521398342490205,-0.0010101957100033046,3.712283627916531e-08,0.0031967520385139596,-0.6588183134994813,86,0.0671875,0.13616430250249342
68.667,1.9099999999999966,0.6343349449487703,0.4482778241079791,-0.001011782554006451,-2.0628848046938145e-06,0.003206422221316476,-0.6949505340340305,79,0.06171875,0.14723940243623537
68.701,1.9439999999999884,0.6364898642236801,0.44646414214743707,-0.0010119087292428698,-1.6593367228689863e-06,0.0032072397417039285,-0.7041313629292387,78,0.0609375,0.150055981804081
68.739,1.9819999999999993,0.638586321358758,0.44467203441032316,-0.001009311014905253,-1.4120984999110813e-06,0.0031909437142417893,-0.7121637958676131,76,0.059375,0.15281402144495684
68.776,2.0189999999999912,0.640614074350185,0.44290769154412435,-0.0010130802818002424,3.529026565756982e-07,0.003214598414384332,-0.7198464513283,75,0.05859375,0.15550189940791345
68.815,2.0579999999999927,0.6426648787719792,0.44109503769888286,-0.0010109449118630605,-9.76942642719771e-06,0.0032029235189876683,-0.7277048905858091,73,0.05703125,0.1582389622020633
68.849,2.0919999999999987,0.646647593380411,0.4374874902451046,-0.001011264297000599,-6.018006025593239e-06,0.003203665970340121,-0.7426349445831816,72,0.05625,0.1636126615106116
68.883,2.1259999999999906,0.6486678829907855,0.43561853386922145,-0.0010105237048931848,-5.401793319325962e-06,0.0031989021323408644,-0.7503239312616955,71,0.05546875,0.1663648548259042
68.925,2.167999999999992,0.6506007304846239,0.4338051296701305,-0.0010100038225194265,-1.6028548726572054e-06,0.003195497618489073,-0.7580290336820383,70,0.0546875,0.16901520088325558
68.962,2.2049999999999983,0.6524872101838204,0.43200567000953416,-0.0010104664435617826,5.360419676157543e-06,0.003199111411676937,-0.765992936560028,68,0.053125,0.17162227984745942
69.002,2.2449999999999903,0.6544100995160357,0.4301425264834518,-0.0010100268633294607,5.565561524026833e-06,0.003196676902791897,-0.7741806184301928,67,0.05234375,0.174299742673108
69.04,2.2830000000000013,0.6562606221883017,0.42832048552046836,-0.0010097492867859811,6.187349956329079e-06,0.0031951487012006033,-0.7817962465836281,66,0.0515625,0.1768967154167771
69.077,2.319999999999993,0.6581292626233024,0.42645109440975804,-0.001010131243986391,1.072322121650761e-05,0.003199623496300059,-0.7891485980423351,64,0.05,0.1795399029243373
69.196,2.438999999999993,0.6656632127269232,0.41864467371821995,-0.001009440963723348,1.0416497585007967e-05,0.0031951439818655703,-0.8170439252695259,61,0.04765625,0.19038919839920854
69.233,2.475999999999999,0.6674942899583894,0.41668207702396864,-0.0010092558756888796,9.010841958716842e-06,0.00319335985718632,-0.8238277337636791,60,0.046875,0.1930733425108166
69.269,2.5120000000000005,0.6693114489177366,0.4147081696759062,-0.001009090242434875,7.184372363702855e-06,0.003191503838900415,-0.8301910421910499,59,0.04609375,0.19575632162036455
69.309,2.5519999999999925,0.6711738249764543,0.4126586829652146,-0.001008992242716611,5.3970799768901365e-06,0.0031900823590637014,-0.8369750720508449,58,0.0453125,0.19852558873665835
69.344,2.586999999999989,0.6729702240809208,0.41065506973959337,-0.0010089614031934743,3.1908299606372164e-06,0.003189336029326329,-0.8434908315007887,58,0.0453125,0.20121659518414453
69.383,2.6259999999999906,0.6765833003063665,0.4065445740853069,-0.0010090724555776448,-8.940139642695588e-07,0.003189773649935998,-0.8567163289508467,57,0.04453125,0.20668932957540573
69.419,2.661999999999992,0.6783453050928011,0.40449919657732425,-0.0010092149988271473,-3.127672221817693e-06,0.003190518377435653,-0.863322358534913,56,0.04375,0.2093890017809855
69.467,2.7099999999999937,0.6800937560480866,0.40244242853281814,-0.0010094114049572708,-6.516638287878721e-06,0.0031923833601662987,-0.8696759719328955,55,0.04296875,0.21208851572463172
69.506,2.7489999999999952,0.6818815518326906,0.4003120587932088,-0.0010096143853513331,-9.104483769736635e-06,0.0031944995837023104,-0.8761099127886297,54,0.0421875,0.21486964660880292
69.541,2.783999999999992,0.6836022403974555,0.3982352831444181,-0.001009706530487639,-1.0761558833005808e-05,0.0031956214610599346,-0.8822373216562733,53,0.04140625,0.21756663868004134
69.579,2.8219999999999885,0.6853077460659786,0.3961504939182129,-0.0010097128720460286,-1.171323558746335e-05,0.0031959763322456213,-0.8882388914435482,52,0.040625,0.220260167165702
69.62,2.8629999999999995,0.6887230135283374,0.3918986794810464,-0.0010095387441907133,-1.0760562058419821e-05,0.0031946268186714044,-0.9000043140412638,52,0.040625,0.22571381045079994
69.651,2.8939999999999912,0.690371719260141,0.38981511946681063,-0.0010091550729370707,-9.968674921472441e-06,0.003192019498521032,-0.9055326099388842,51,0.03984375,0.22837077355235103
69.691,2.9339999999999975,0.692017715330467,0.3877085555268756,-0.0010101451596254037,-1.7904570296257636e-05,0.0032006108599961993,-0.910952919481475,50,0.0390625,0.23104414496249276
69.724,2.9669999999999987,0.6936100131734054,0.3856477685049615,-0.0010102438051058024,-1.923970412286799e-05,0.003201621374483868,-0.9160465292056873,50,0.0390625,0.2336484213630148
69.764,3.006999999999991,0.6952187834192445,0.3835417344297261,-0.0010093004788940645,-1.2625594636221026e-05,0.0031936781195501147,-0.9213196112794835,49,0.03828125,0.2362986140409063
69.805,3.048000000000002,0.6968606263282802,0.38136396573661496,-0.0010089987822106336,-1.109340036210365e-05,0.0031913661036664263,-0.926862196108169,48,0.0375,0.2390259432507095
69.845,3.087999999999994,0.6984482897060391,0.3792360848866725,-0.0010091092518919008,-1.2431763615825838e-05,0.003192485371480026,-0.9320328086149803,48,0.0375,0.24168085415554771
69.88,3.1229999999999905,0.700030306487299,0.37709560332004277,-0.0010088913934543121,-1.1549385437179415e-05,0.003190851921467127,-0.9371274792905875,48,0.0375,0.24434251499668988
69.917,3.1599999999999966,0.7032138868117723,0.3727177971786582,-0.001008254924986466,-7.784286884375283e-06,0.0031856636746463636,-0.9477754325057953,47,0.03671875,0.24975551546373112
69.955,3.1979999999999933,0.7047673713945112,0.37054576431925446,-0.0010079797761239837,-5.9810133150917355e-06,0.0031833640357766322,-0.9530232338337405,47,0.03671875,0.25242591638702655
69.99,3.23299999999999,0.7063569611493753,0.36829869062124,-0.001007760639820575,-4.404474473184563e-06,0.0031814857812162015,-0.958171868428685,46,0.0359375,0.25517839450557306
70.03,3.272999999999996,0.7078917269132533,0.3661055064279666,-0.0010076399173576008,-2.4513352789174248e-06,0.0031808348430678634,-0.9633231544958445,45,0.03515625,0.25785525140417564
70.064,3.306999999999988,0.7094161948521923,0.3639033628756,-0.0010075374072222691,-1.4370949976538615e-06,0.003180263192113322,-0.9682342328215052,45,0.03515625,0.2605335790021522
70.095,3.337999999999994,0.7109771589387216,0.36162454958444457,-0.0010074779104068086,-5.445658931599587e-07,0.0031799495849708023,-0.9731948788158447,44,0.034375,0.26329575185977366
70.136,3.3789999999999907,0.7124839987936039,0.3594011691158474,-0.0010074620369993174,1.8328366633585446e-07,0.0031798951923673996,-0.9781741550732825,43,0.03359375,0.26598163850228135
70.167,3.4099999999999966,0.7139809009758279,0.357169037309611,-0.0010074934443957823,8.077640975926221e-07,0.003180126481498168,-0.982915094625509,42,0.0328125,0.2686692263694141
70.201,3.4439999999999884,0.7155137275067096,0.35485955585433215,-0.0010075703525987897,1.336117805772903e-06,0.0031806325430615186,-0.9877026936858146,41,0.03203125,0.2714410960932741
70.244,3.4869999999999948,0.7169925172073395,0.3526086149860948,-0.0010076925048564424,1.7458143865646675e-06,0.0031814107694090074,-0.9922617750976241,40,0.03125,0.274134338334698
70.28,3.522999999999996,0.718462597067467,0.35034862215618545,-0.0010078641174020506,2.052275569928845e-06,0.0031824878463352167,-0.9967332970986914,39,0.03046875,0.27683039144737853
70.315,3.5579999999999927,0.7199682223276154,0.3480108866731969,-0.0010080962877628344,2.2573272190446515e-06,0.0031839324599383777,-1.0012504993077558,38,0.0296875,0.2796110235000638
70.351,3.593999999999994,0.7228650321410659,0.34344717759825016,-0.0010087266231881935,2.3075303116276487e-06,0.0031878242688004,-1.009758487937869,37,0.02890625,0.2850164913734634
70.386,3.6289999999999907,0.7243443438588949,0.3410828927386612,-0.0010091515463208703,2.1137661139636044e-06,0.003190434317464426,-1.0141049262592243,36,0.028125,0.28780543491103955
70.424,3.6670000000000016,0.7257711758248933,0.33878046246505045,-0.0010096353399046479,1.7917148759896409e-06,0.0031933999134062863,-1.018238836630897,34,0.0265625,0.2905141310224618
70.462,3.7049999999999983,0.7271888470243505,0.3364714246320199,-0.001010153571874374,1.1849913410249853e-06,0.0031965612740547053,-1.0222844616482551,33,0.02578125,0.29322364155835884
70.505,3.7479999999999905,0.7286384763771906,0.33408901029041366,-0.0010106978269211649,3.5888355446968477e-07,0.0031998697562985556,-1.0260989596289287,32,0.025,0.2960124268415434
70.537,3.780000000000001,0.7300360873929752,0.33177219153064974,-0.0010111476830215356,-9.308921352210685e-08,0.0032026204102028376,-1.0298544270596985,30,0.0234375,0.29871815515699496
70.572,3.8149999999999977,0.7314227592765107,0.329453395136229,-0.001011524448789599,-3.7304237820277737e-07,0.0032049276130341345,-1.0335148703732358,29,0.02265625,0.30141994634644065
70.608,3.850999999999999,0.7328382528982248,0.3270651709912751,-0.0010119002267780647,7.087880650104042e-07,0.003207314374608142,-1.0369163787033335,28,0.021875,0.3041961373988818
70.648,3.890999999999991,0.7342021319549898,0.3247458938207558,-0.0010120219811887605,-8.134644306662478e-07,0.003207973400283798,-1.040259307243666,26,0.0203125,0.30688671590083527
70.69,3.9329999999999927,0.736929494176741,0.32005109351463884,-0.0010110656314829235,2.0888528364544035e-07,0.0032021710705960557,-1.0466774199446836,25,0.01953125,0.31231624043684103
70.735,3.9779999999999944,0.7382383184187896,0.31778407381846185,-0.0010113017196039173,-4.172204655436314e-06,0.0032033620773604587,-1.0494763623926595,23,0.01796875,0.31493394920586565
70.759,4.001999999999995,0.7395199520960462,0.3155477364700579,-0.0010121997756058244,-9.826457439238127e-06,0.0032106455587504767,-1.0521503946712347,22,0.0171875,0.31751150417492924
70.804,4.046999999999997,0.74083952531072,0.3132305540213749,-0.0010131013659017071,-1.4952300895395931e-06,0.0032145578331668097,-1.055121739581368,21,0.01640625,0.3201780765008505
70.843,4.0859999999999985,0.742131440708544,0.31094265520473635,-0.0010116922785405463,1.0957556968944725e-06,0.0032060908454923593,-1.0576982001641855,19,0.01484375,0.3228055327593467
70.879,4.122,0.7434096204947093,0.3086627940573075,-0.001011332152067966,2.7258413254525304e-06,0.0032039455321464464,-1.0602605638075688,18,0.0140625,0.3254192485850089
70.919,4.161999999999992,0.7459882998659146,0.30402564171835816,-0.0010102190492821718,4.08112887830354e-06,0.003197154292175815,-1.0647950686375576,16,0.0125,0.3307251707831406
70.948,4.190999999999988,0.7459882998659146,0.30402564171835816,-0.0010102190492821718,4.08112887830354e-06,0.003197154292175815,-1.0647950686375576,15,0.01171875,0.3307251707831406
70.992,4.234999999999999,0.7485455640349661,0.29937694566947387,-0.0010094022202106895,4.382810516846053e-06,0.003192156123858775,-1.0690809796304763,14,0.0109375,0.3360308284078668
71.03,4.272999999999996,0.7497992887989147,0.2970809813927049,-0.0010087688249445746,3.0392201421066085e-06,0.0031881375570353455,-1.071073433739118,13,0.01015625,0.33864679433729655
71.068,4.310999999999993,0.7510502477160667,0.29478026666586193,-0.001008294853535853,1.7366039083599553e-06,0.00318512929623449,-1.0729731909534217,11,0.00859375,0.34126560828004127
71.101,4.343999999999994,0.7523363975385314,0.2924050777589341,-0.0010079926092252285,1.1797691700510887e-06,0.0031832321007517887,-1.0748309596407912,10,0.0078125,0.3439666643160056
71.137,4.3799999999999955,0.7535823871469371,0.29009612636816917,-0.0010077788428403053,7.038209012016374e-07,0.003181885582293444,-1.076286771632719,9,0.00703125,0.346590353823011
71.172,4.414999999999992,0.7548264540094526,0.2877828833891784,-0.001007570245989596,1.7250306805674771e-07,0.003180567111798395,-1.0777951420971255,8,0.00625,0.34921690963590724
71.216,4.458999999999989,0.7573477628526345,0.2830726301980694,-0.0010073390189691833,-9.92107166588832e-07,0.003179072623837775,-1.080581325954541,6,0.0046875,0.35455952083498876
71.259,4.501999999999995,0.7585880281538515,0.28074546413986307,-0.0010072927308668704,-1.1792202569065926e-06,0.003178777049417498,-1.0819078661388641,5,0.00390625,0.357196557027359
71.292,4.534999999999997,0.7598639632283638,0.2783449579459963,-0.0010071997469300112,-1.6773369931921192e-06,0.0031781739042402264,-1.0829112225507906,4,0.003125,0.35991509345366696
71.325,4.567999999999998,0.7611015520654422,0.27601106747847476,-0.0010071672431975522,-1.9288373872486667e-06,0.0031779580364907196,-1.0839429029518837,3,0.00234375,0.36255681085794184
71.362,4.60499999999999,0.7623382432499908,0.2736735240747818,-0.0010071670634528226,-2.1403897570308213e-06,0.003177944192701278,-1.0848813476033727,2,0.0015625,0.3652013361934394
71.397,4.640000000000001,0.7636117913563449,0.2712613874385756,-0.0010072092413704638,-2.4437088463593945e-06,0.0031781854410721233,-1.0857489754142469,2,0.0015625,0.36792903264482957
71.43,4.673000000000002,0.7648474757077331,0.26891662643974995,-0.0010072804263623787,-2.771293738168818e-06,0.003178603746599691,-1.0864943724300042,1,0.00078125,0.3705794703365853
71.464,4.706999999999994,0.766083534048881,0.2665666406899636,-0.0010073841900637807,-3.2238424556001333e-06,0.0031792157014029635,-1.0873983257424562,0,0.0,0.3732347054009289
71.501,4.744,0.7673559193780503,0.26414274709893426,-0.0010075167106552152,-3.661606603643275e-06,0.003180005216056363,-1.088070861120274,0,0.0,0.3759722635403149
71.532,4.7749999999999915,0.7685903672088528,0.2617874089709671,-0.0010076812151702634,-4.166428122587382e-06,0.0031809878996262105,-1.0886200421459913,-1,-0.00078125,0.37863148883051295
71.57,4.812999999999988,0.7698249989106,0.25942769245575886,-0.001007876351990386,-5.7648778272278135e-06,0.0031826541640144375,-1.0893314569139976,-1,-0.00078125,0.3812946781724685
71.609,4.85199999999999,0.7710961737876544,0.25699451065011375,-0.0010081322669625616,-6.469596666623492e-06,0.003184470998524137,-1.0898058985394459,-1,-0.00078125,0.38403990298427837
71.645,4.887999999999991,0.7723304002806154,0.2546287335222487,-0.0010084610128860694,-7.30137567718462e-06,0.00318677670987531,-1.0904122249380785,-1,-0.00078125,0.3867082763567014
71.681,4.923999999999992,0.7735642767296999,0.2522598071824692,-0.0010088129951246784,-7.967620047665003e-06,0.0031891739390325787,-1.0910163821753072,-1,-0.00078125,0.389379280492772
71.721,4.963999999999999,0.7760662674009099,0.24744495329966582,-0.0010095123067463616,-7.175010070370259e-06,0.003193226988760517,-1.0921920826193081,-1,-0.00078125,0.3948054004826669
71.753,4.995999999999995,0.7772961184075795,0.24507329453247217,-0.001009926886739565,-7.367802980118549e-06,0.0031958497565810267,-1.0927344795356952,-1,-0.00078125,0.39747697282992095
71.792,5.034999999999997,0.778560763123726,0.24263063774157975,-0.0010103449517018942,-7.091574405992441e-06,0.0031983408039133747,-1.0932633025392704,-1,-0.00078125,0.4002275906616399
71.83,5.072999999999993,0.7797851746031447,0.24026251066643323,-0.0010106651080621087,-6.05498563986036e-06,0.0031999743474435613,-1.0937376749910748,-1,-0.00078125,0.4028935256411497
71.863,5.1059999999999945,0.7810061875428065,0.23789761110647115,-0.001010820239856939,-2.243670931618618e-06,0.0032004909527364287,-1.0941664869582712,-1,-0.00078125,0.40555503320783637
71.9,5.143000000000001,0.7822603167880163,0.23546973253016312,-0.0010106690360030222,2.46295505037406e-07,0.0031997227359724374,-1.094543633107362,-1,-0.00078125,0.4082876939158252
71.939,5.181999999999988,0.783459839435984,0.2331464985416445,-0.0010111819228648226,-1.4308410836586344e-06,0.0032027950120656116,-1.0946843631473446,-1,-0.00078125,0.4109023202272501
71.973,5.215999999999994,0.7846358922860163,0.2308640436667297,-0.0010117661738334172,-5.017016646264867e-06,0.0032065528020178372,-1.0945437943780438,-1,-0.00078125,0.41346994569878825
72.006,5.248999999999995,0.7858542816147048,0.22850212540672785,-0.0010119094638708775,-4.323296821443308e-06,0.003207012789110391,-1.0945078839446616,-1,-0.00078125,0.41612760075977573
72.041,5.283999999999992,0.7870597836341532,0.22616352727939276,-0.0010119258155298454,-6.853277276188561e-06,0.0032080391056765207,-1.0948420015115805,-1,-0.00078125,0.41875862267531905
72.077,5.319999999999993,0.7882679401426299,0.22382628880083222,-0.0010124959287935165,-2.1083426464351053e-06,0.003210823837160894,-1.0951999201807636,-1,-0.00078125,0.4213896540044063
72.112,5.35499999999999,0.789508225836873,0.22142174822653157,-0.0010116259947786158,-2.3036253324433106e-06,0.0032054491102298673,-1.0955995283751017,-1,-0.00078125,0.42409522676757533
72.15,5.393000000000001,0.7918857510661591,0.21679480466566214,-0.0010105821952335163,5.6946585806614895e-06,0.003200010636585118,-1.096787232991578,-1,-0.00078125,0.42929726825290965
72.185,5.427999999999997,0.7931046541255121,0.214415354566424,-0.0010109228253622968,1.0250215544647315e-05,0.003204193101627954,-1.0974675847756534,-1,-0.00078125,0.4319707505219484
72.23,5.472999999999999,0.7942980412392665,0.21208541717423518,-0.0010099916514281632,7.377731804318437e-06,0.00319715614662078,-1.097994086015513,-1,-0.00078125,0.4345885322269029
72.267,5.509999999999991,0.7954870013699371,0.2097593343853787,-0.0010098018721690638,8.032817850030643e-06,0.003196292672249211,-1.0985713512661437,-1,-0.00078125,0.43720086592169355
72.303,5.545999999999992,0.7967108987761894,0.20736183081214837,-0.0010095175992438851,7.849743829590824e-06,0.0031944513098376864,-1.0991827396008864,-1,-0.00078125,0.4398926958280367
72.336,5.5789999999999935,0.7978973075951218,0.20503357991640536,-0.0010092522816710983,7.402989664453553e-06,0.00319260826845242,-1.0997921151202255,-1,-0.00078125,0.44250580090039193
72.376,5.619,0.7990827980211749,0.20270364506905367,-0.0010090131905381265,6.851157072899221e-06,0.0031908794114287303,-1.1004134419017126,-1,-0.00078125,0.4451199898650935
72.41,5.652999999999992,0.800303596209108,0.20030048372416293,-0.0010086760556983175,5.5175994379539885e-06,0.0031881881732396217,-1.101060431552202,-1,-0.00078125,0.44781545506895676
72.451,5.693999999999988,0.8026735635660395,0.1956241989138289,-0.0010079105835932023,2.6311765420685556e-06,0.0031828160091889077,-1.1023108037060025,-1,-0.00078125,0.4530580104605864
72.486,5.728999999999999,0.8038950158765128,0.19320896185100056,-0.0010076327870122692,1.2019988413632156e-06,0.0031810173698807653,-1.102947814111144,-1,-0.00078125,0.45576454252513326
72.524,5.766999999999996,0.8050808711129182,0.19086084772692644,-0.0010074704716339158,1.8250222249668523e-07,0.0031799519490129245,-1.1035617665385407,-1,-0.00078125,0.4583951113954323
72.562,5.804999999999993,0.8062667656139215,0.18850942713818966,-0.0010073756543906125,-5.580236666415731e-07,0.0031793236753289295,-1.1041760608682816,-1,-0.00078125,0.4610286498046159
72.598,5.840999999999994,0.8074886977274697,0.18608313770342524,-0.0010073060344333896,-1.2074186504270045e-06,0.0031788556487873146,-1.1048099365136035,-1,-0.00078125,0.4637452650720709
72.633,5.875999999999991,0.8086748095708067,0.1837241492065199,-0.001007266276688977,-1.7073550226062118e-06,0.0031785815690620273,-1.1054296973896554,-1,-0.00078125,0.46638566050333424
72.673,5.915999999999997,0.8098608005483715,0.18136173705673586,-0.0010072608781001996,-2.146589771807002e-06,0.003178521856396691,-1.106049755980683,-1,-0.00078125,0.4690290609202806
72.709,5.951999999999998,0.8110828060087361,0.17892390072466083,-0.0010073103070571757,-2.74306205852866e-06,0.0031787902621443495,-1.1066912680166836,-1,-0.00078125,0.47175602687664053
72.743,5.98599999999999,0.812268983636055,0.17655396124787243,-0.0010074001316950354,-3.358504261629747e-06,0.00317930667860869,-1.10731687360772,-1,-0.00078125,0.4744062401675272
72.771,6.013999999999996,0.8134551861830419,0.17418041315596725,-0.0010075234308856255,-3.977270851380361e-06,0.0031800289806545546,-1.1079441407218187,-1,-0.00078125,0.477059692075338
72.807,6.049999999999997,0.8146773035521708,0.1717310198974511,-0.0010076808654160482,-5.188281038952603e-06,0.0031812559712610868,-1.108590456873894,-1,-0.00078125,0.4797970444820973
72.849,6.091999999999999,0.8170616209154838,0.1697586100272645,-0.001008279903795553,-3.260701655259515e-06,0.003183106340803034,-1.1265799545953885,-1,-0.00078125,0.48289498846545575
72.889,6.131999999999991,0.8182770625952626,0.16883239807334452,-0.001008231495238824,-3.4881766975112835e-06,0.0031827374047315843,-1.1367682260240777,-1,-0.00078125,0.48442311380734615
72.923,6.165999999999997,0.8194312658821934,0.16793454207118869,-0.0010081642460950252,-3.500105590072735e-06,0.003182289294953152,-1.1465175265807288,-1,-0.00078125,0.4858854170003158
72.96,6.202999999999989,0.8205469774917065,0.1670491669262339,-0.001008205000050659,-4.6158194267904375e-06,0.003182424138629545,-1.1560143503952796,-1,-0.00078125,0.4873097419431943
72.995,6.2379999999999995,0.8216564337164972,0.16615152565789884,-0.0010081436685263241,-4.69925316494377e-06,0.0031820269714204954,-1.1655291371273802,-1,-0.00078125,0.4887368554500133
73.033,6.275999999999996,0.8226726388106264,0.16531382944454698,-0.0010080892257024326,-4.810786062372313e-06,0.003181687026111405,-1.1743096262507708,-1,-0.00078125,0.4900538245989299
73.067,6.309999999999988,0.8236056940520401,0.16453133741538817,-0.0010080343153610928,-4.889026839150429e-06,0.003181364173558143,-1.182428553003629,-1,-0.00078125,0.49127156260820226
73.101,6.343999999999994,0.8244564969690911,0.16380645996796542,-0.001007978492015258,-4.939631154723309e-06,0.0031810594814553703,-1.18988073360752,-1,-0.00078125,0.49238928928205616
73.139,6.381999999999991,0.8251531690501359,0.1632046721709706,-0.0010079277659190145,-4.979005584805321e-06,0.0031808127915030214,-1.1960186779383992,-1,-0.00078125,0.49330988720792784
73.172,6.414999999999992,0.8257022384745675,0.16272506793846253,-0.0010078903565468277,-5.104952193073129e-06,0.0031806892801794894,-1.2008795838605617,-1,-0.00078125,0.4940389259261625
73.208,6.450999999999993,0.8260989675782003,0.16237614840397352,-0.0010082864854787446,-1.5847360184055162e-06,0.003183611001276082,-1.204403154866001,-1,-0.00078125,0.4945672618261517
73.245,6.4879999999999995,0.8263629289083916,0.16214260021804447,-0.0010076755115523868,3.845727782937439e-06,0.0031802380790444374,-1.2067498131694334,-1,-0.00078125,0.4949197108848638
73.277,6.519999999999996,0.8265494309216315,0.16197628293666724,-0.0010078103706481385,1.4551236938860902e-06,0.003180914174648141,-1.2084177722201137,-1,-0.00078125,0.4951695997382111
73.31,6.552999999999997,0.8266928751881626,0.16184814714420706,-0.0010076791750872616,1.7819516268475993e-06,0.0031801759144666534,-1.2097004065398862,-1,-0.00078125,0.49536194068265627
73.346,6.588999999999999,0.8268225681513576,0.16173193729829655,-0.0010076302443095889,1.2862474377440745e-06,0.0031799542476005542,-1.2108622426902738,-1,-0.00078125,0.4955360814101982
73.383,6.625999999999991,0.8272092569512377,0.16138389652963214,-0.001007622701993987,-3.2648013910959343e-07,0.00318005948350606,-1.2143337868778359,-1,-0.00078125,0.49605633212387423
73.416,6.658999999999992,0.8274986002344693,0.16107639873690194,-0.0010074325628692052,1.4759853855722582e-06,0.003178966239237639,-1.217389584966818,-1,-0.00078125,0.4964785576892835
73.452,6.694999999999993,0.8277791560091622,0.16057213217636623,-0.001007539188412069,4.47844266207444e-06,0.003179818943684997,-1.2223810146155165,-1,-0.00078125,0.497055616011109
73.486,6.728999999999999,0.8280617990909057,0.15977322180723683,-0.0010061949157835377,-3.600712091214858e-06,0.0031715562250236628,-1.230220560637308,-1,-0.00078125,0.4979030503091876
73.523,6.765999999999991,0.8284453481238506,0.15873711902299145,-0.001005877874951728,-5.831063744701186e-08,0.003168968080385837,-1.240302488240008,-1,-0.00078125,0.49900786651118406
73.559,6.8019999999999925,0.8288476106444727,0.1576344519154229,-0.0010071095957942568,-1.3849859407948889e-06,0.003176345487020362,-1.2509238334243626,-1,-0.00078125,0.500181616861817
73.593,6.8359999999999985,0.8292762001177906,0.15648221633642356,-0.001007318985735306,-3.968459602442238e-06,0.00317764573031103,-1.2618936584625429,-17,-0.01328125,0.5014109808299528
73.631,6.873999999999995,0.8297116959612271,0.15535264934168747,-0.0010074462136664235,-5.5413716121835045e-06,0.0031782044338447674,-1.2725307764906775,-57,-0.04453125,0.5026215915127272
73.665,6.908000000000001,0.8301085355287073,0.15468372338483677,-0.0010075348875833653,-8.021547301437655e-06,0.0031807145634149656,-1.2787787853518335,-75,-0.05859375,0.5033993727017942
73.698,6.940999999999988,0.8303083151698892,0.15447586772353045,-0.0010076580139275967,-1.0141840192179175e-05,0.003180889867578934,-1.2807113573157458,-84,-0.065625,0.5036876709518199
73.734,6.97699999999999,0.8305403193846765,0.15417107992025386,-0.0010070988896213572,-3.92778325564647e-06,0.0031763078455127715,-1.283537973601633,-99,-0.07734375,0.5040707134569093
73.769,7.0120000000000005,0.8308900851275804,0.15369130357060504,-0.0010075216801183548,-8.586919265210242e-06,0.0031784377239138005,-1.2879755907249022,-118,-0.0921875,0.5046644486003795
73.802,7.045000000000002,0.8312542119867807,0.15330709125415562,-0.0010076935473876322,-1.304856510979759e-05,0.003181282501097107,-1.2915155628894806,-132,-0.103125,0.5051937948705113
73.841,7.083999999999989,0.8315910986121955,0.1529509363764343,-0.0010075489157029514,-1.337659128924885e-05,0.0031802637356360365,-1.2947850430840042,-146,-0.1140625,0.505684038580627
73.876,7.119,0.8317911740050742,0.15273847271768093,-0.0010071838969879614,-9.63086053667943e-06,0.0031753070424782926,-1.2967278067263095,-152,-0.11875,0.5059758792377097
73.912,7.155000000000001,0.8318936508222089,0.152629069700182,-0.001006966690477902,-8.926272328078908e-06,0.0031739024065929496,-1.2977272504583368,-157,-0.12265625,0.5061257809331235
73.946,7.188999999999993,0.8320166743969735,0.1524973702861208,-0.0010069179524178386,-9.880829222274654e-06,0.003173322707488532,-1.298929994043336,-162,-0.1265625,0.5063060017299588
73.982,7.224999999999994,0.8321269586727541,0.15237911041287686,-0.0010068053865254362,-1.0055096163856035e-05,0.0031724638355524423,-1.300008783435188,-167,-0.13046875,0.5064677052212758
74.018,7.260999999999996,0.8323028146148495,0.15218989163331584,-0.001006553805731069,-1.0155256671623985e-05,0.0031708030749294292,-1.3017321565335984,-171,-0.13359375,0.5067260249338659
74.058,7.301000000000002,0.8323891856753816,0.1520967486124747,-0.0010064636602245408,-1.0372365905565011e-05,0.0031702015838512357,-1.3025796973846617,-176,-0.1375,0.5068530508462966
74.096,7.338999999999999,0.8324785853680853,0.1520002831164804,-0.001006378829192963,-1.044320878668529e-05,0.003169652010379778,-1.3034572696095341,-180,-0.140625,0.506984572315924
74.14,7.382999999999996,0.8325660199862426,0.151905797951134,-0.0010063710262354642,-1.0429868552880769e-05,0.0031697616087613574,-1.3043160603603523,-185,-0.14453125,0.5071133056019181
74.177,7.420000000000002,0.8326543926589917,0.15181039478151767,-0.0010064910085028252,-9.63180903745925e-06,0.003170737058657225,-1.3051840099916656,-190,-0.1484375,0.5072433498023334
74.22,7.462999999999994,0.8328318654947016,0.15161315167769107,-0.001007792256560596,-1.426940639306378e-06,0.0031803223556705054,-1.3069835399655538,-195,-0.15234375,0.5075087074610277
74.261,7.503999999999991,0.832901866879384,0.15150989837644663,-0.0010074162409716633,2.262756429872099e-06,0.0031779772625044112,-1.3079185389249584,-201,-0.15703125,0.5076334529542342
74.297,7.539999999999992,0.8329257434272431,0.15139379901267344,-0.0010080145378226595,4.969383754117283e-06,0.003182709171420264,-1.308974414023605,-206,-0.1609375,0.507751982072202
74.342,7.584999999999994,0.8329508381930553,0.15127762708372855,-0.0010066053128975627,-2.9603719111027463e-06,0.0031742407671492647,-1.3100138618732748,-212,-0.165625,0.5078708335103336
74.369,7.611999999999995,0.8329946496274895,0.15116617505966728,-0.001006657525847325,-2.6769005757588986e-06,0.0031740172439489373,-1.311022303040868,-218,-0.1703125,0.5079905874056962
74.411,7.653999999999996,0.8330401053578398,0.1510534253539625,-0.0010066592899376607,-2.7630739127121837e-06,0.0031734916295811924,-1.312039606289874,-224,-0.175,0.5081121551627629
74.447,7.689999999999998,0.833086353730129,0.15094608761287276,-0.0010066147137938776,-2.161321244799988e-06,0.0031724621469636925,-1.3130068507297747,-229,-0.17890625,0.5082290324599665
74.48,7.722999999999999,0.8331297897956379,0.15083979194932293,-0.0010066410206665717,-2.57931732033714e-06,0.0031723017110196878,-1.3139644089089737,-234,-0.1828125,0.5083438604176963
74.518,7.760999999999996,0.8333024220696426,0.15064022320406206,-0.0010068675125798204,-7.860475188868413e-06,0.003173554922350066,-1.3157596085142762,-239,-0.18671875,0.5086077910106906
74.551,7.793999999999997,0.8333901765901809,0.1505427889524337,-0.0010067548952987643,-8.151919449912196e-06,0.003172576371089091,-1.3166345875813883,-244,-0.190625,0.5087389180073972
74.589,7.831999999999994,0.8334800873274439,0.15044277493838196,-0.0010066415100320816,-8.521297559559737e-06,0.003171724171710924,-1.3175320289438717,-249,-0.19453125,0.5088734049721259
74.623,7.866,0.8335668547787738,0.15034610476490184,-0.0010065303775483835,-8.798221945014814e-06,0.0031708880836952475,-1.3183987763875515,-254,-0.1984375,0.5090033038291298
74.66,7.902999999999992,0.8336533886300189,0.15024954606639832,-0.0010064402701034855,-9.184992112356475e-06,0.0031701448323057575,-1.3192640290056303,-259,-0.20234375,0.5091329637291299
74.695,7.937999999999988,0.8337424240724405,0.15015001377494683,-0.0010063605486992193,-9.65766355143127e-06,0.0031695567207687242,-1.3201551682581991,-264,-0.20625,0.509266507680879
74.727,7.969999999999999,0.8338289697282825,0.15005315304046912,-0.0010062743211512806,-9.95313591756213e-06,0.003169075355979125,-1.3210220193540407,-269,-0.21015625,0.5093964005306771
74.761,8.00399999999999,0.833915832361974,0.14995577650800426,-0.0010062393972910845,-1.0362731999194616e-05,0.003168831188883551,-1.321893118354728,-273,-0.21328125,0.5095268892512882
74.801,8.043999999999997,0.8340059390362914,0.14985470945427418,-0.0010062148051512912,-1.019572364713359e-05,0.00316876175999677,-1.322796679948414,-279,-0.21796875,0.509662291474705
74.834,8.076999999999998,0.8340941536582334,0.14975576834245177,-0.0010063439316541911,-9.51669195251674e-06,0.0031697432379632724,-1.3236814904780945,-284,-0.221875,0.5097948477387328
74.871,8.11399999999999,0.8341685432293952,0.14965226325710723,-0.0010072152545821667,2.08128971538271e-06,0.003176199495778324,-1.3246137405524347,-289,-0.22578125,0.5099223118944387
74.905,8.147999999999996,0.8342035325293741,0.14953669764015173,-0.0010078240894154898,6.029049539064384e-06,0.0031808364786681813,-1.325649163407986,-296,-0.23125,0.5100430581694757
74.942,8.184999999999988,0.8342316693519699,0.1494214304631861,-0.0010083157967812478,5.538884194777561e-06,0.0031836054134304313,-1.3266780535449278,-302,-0.2359375,0.5101617097723785
74.974,8.216999999999999,0.8342561565547302,0.14930367234290726,-0.0010082433415814322,7.114031020967535e-06,0.003184953795613407,-1.327728168841804,-308,-0.240625,0.5102819869439059
75.008,8.25099999999999,0.8342840493420598,0.1491805990978547,-0.0010081391669389851,4.536268837908757e-06,0.003184629035639201,-1.3288232180986346,-314,-0.2453125,0.5104081813622959
75.151,8.393999999999991,0.8343278268951998,0.14906996418384244,-0.0010067552736106426,-1.9483845071821003e-06,0.003174756696800492,-1.3297943800972611,-316,-0.246875,0.5108531370876928
75.185,8.427999999999997,0.8343087230288141,0.14915556079611836,-0.0010067305274171247,-1.81397235735077e-06,0.0031745522445845074,-1.3290338401811508,-312,-0.24375,0.510940839640358
75.361,8.604,0.8343635622388244,0.1490462297176325,-0.0010069961619523539,-4.822049587151219e-07,0.0031756878157039826,-1.3300062728030422,-316,-0.246875,0.5113919159497455
75.396,8.638999999999996,0.8343435456891839,0.14913068223820847,-0.001006984170461838,-4.929474868026782e-07,0.0031755509567102545,-1.329256077098371,-313,-0.24453125,0.5114787081757288
75.574,8.816999999999993,0.834491325118336,0.14905261038036363,-0.001007305107508072,1.077722738091859e-06,0.0031773300716179554,-1.329951427614604,-315,-0.24609375,0.5119492872575567
75.61,8.852999999999994,0.8344711141311711,0.14913660235084522,-0.0010073005818687815,9.722352717638352e-07,0.0031772601255106664,-1.329205329207363,-314,-0.2453125,0.5120356766961911
